"충전소명",충전소위치상세,설치시도명,휴점일,이용가능시작시각,이용가능종료시각,완속충전가능여부,급속충전가능여부,급속충전타입구분,완속충전기대수,급속충전기대수,주차료부과여부,소재지도로명주소,소재지지번주소,관리업체명,관리업체전화번호,위도,경도,데이터기준일자
"감사위원회",주차장,제주특별자치도,연중무휴,00:00,23:59,Y,N,,3,0,N,제주특별자치도 서귀포시 신중로 37(법환동),,제주특별자치도,1899-8852,33.25602698,126.5095663,2019-06-30
"대륜동문화복지센터",주차장,제주특별자치도,연중무휴,00:00,23:59,N,Y,AC3상+DC차데모 +DC콤보,0,1,N,제주특별자치도 서귀포시 서호남로 10(법환동),,제주특별자치도,1899-8852,33.25017414,126.5133719,2019-06-30
"대륜동주민센터",주차장,제주특별자치도,연중무휴,00:00,23:59,Y,N,,1,0,N,제주특별자치도 서귀포시 일주동로 9185(법환동),,제주특별자치도,1899-8852,33.2481892,126.5111853,2019-06-30
"대륜동주민센터",주차장,제주특별자치도,연중무휴,00:00,23:59,N,Y,AC3상+DC차데모 +DC콤보,0,1,N,제주특별자치도 서귀포시 일주동로 9185(법환동),,환경부(한국자동차환경협회),1661-9408,33.2481892,126.5111853,2019-06-30
"서귀포소방서",주차장,제주특별자치도,연중무휴,00:00,23:59,Y,Y,AC3상+DC차데모 +DC콤보,1,2,N,제주특별자치도 서귀포시 서호남로 20(법환동),,제주특별자치도,1899-8852,33.2513091,126.5665175,2019-06-30
"서귀포시청2청사",주차장,제주특별자치도,연중무휴,00:00,23:59,Y,Y,AC3상+DC차데모 +DC콤보,7,2,N,제주특별자치도 서귀포시 신중로 55(법환동),,제주특별자치도,1899-8852,33.25557995,126.510526,2019-06-30
"월드컵경기장",주차장,제주특별자치도,연중무휴,00:00,23:59,N,Y,AC3상+DC차데모 +DC콤보,0,1,N,제주특별자치도 서귀포시 월드컵로 33,,제주특별자치도,1899-8852,33.24621974,126.5092777,2019-06-30
"치유의숲",주차장,제주특별자치도,연중무휴,00:00,23:59,Y,N,,2,0,N,제주특별자치도 서귀포시 산록남로 2271,,제주특별자치도,1899-8852,33.29193935,126.5279042,2019-06-30
"강정보건지소",주차장,제주특별자치도,연중무휴,00:00,23:59,N,Y,AC3상+DC차데모 +DC콤보,0,1,N,제주특별자치도 서귀포시 강정통물로 125-11,,제주특별자치도,1899-8852,33.2381279,126.4758905,2019-06-30
"농업기술원",주차장,제주특별자치도,연중무휴,00:00,23:59,Y,N,,3,0,N,제주특별자치도 서귀포시 중산간서로 212(강정동),,제주특별자치도,1899-8852,33.2613191,126.4890452,2019-06-30
"농업기술원",주차장,제주특별자치도,연중무휴,00:00,23:59,N,Y,AC3상+DC차데모,0,1,N,제주특별자치도 서귀포시 중산간서로 212(강정동),,환경부(한국자동차환경협회),1661-9408,33.2613191,126.4890452,2019-06-30
"대천동주민센터",주차장,제주특별자치도,연중무휴,00:00,23:59,Y,N,,1,0,N,제주특별자치도 서귀포시 도순로 44,,제주특별자치도,1899-8852,33.2507866,126.477585,2019-06-30
"대천동주민센터",주차장,제주특별자치도,연중무휴,00:00,23:59,N,Y,AC3상+DC차데모 +DC콤보,0,1,N,제주특별자치도 서귀포시 도순로 44,,한국전력,1899-2100,33.2507866,126.477585,2019-06-30
"동홍119센터",주차장,제주특별자치도,연중무휴,00:00,23:59,Y,N,,1,0,N,제주특별자치도 서귀포시 동홍로 31-7(동홍동),,제주특별자치도,1899-8852,33.25169148,126.5667351,2019-06-30
"동홍동주민센터",주차장,제주특별자치도,연중무휴,00:00,23:59,Y,N,,1,0,N,제주특별자치도 서귀포시 동홍로 104(동홍동),,제주특별자치도,1899-8852,33.2578824,126.5689267,2019-06-30
"동홍동주민센터",주차장,제주특별자치도,연중무휴,00:00,23:59,N,Y,AC3상+DC차데모 +DC콤보,0,1,N,제주특별자치도 서귀포시 동홍로 104(동홍동),,환경부(한국자동차환경협회),1661-9408,33.2578824,126.5689267,2019-06-30
"동홍주공5단지",주차장,제주특별자치도,연중무휴,00:00,23:59,N,Y,AC3상+DC차데모 +DC콤보,0,4,N,제주특별자치도 서귀포시 중산간동로 8002(동홍동),,제주특별자치도,1899-8852,33.2655963,126.5619494,2019-06-30
"서귀포시노인복지회관",주차장,제주특별자치도,연중무휴,00:00,23:59,Y,N,,1,0,N,제주특별자치도 서귀포시 태평로537번길 40-9(동홍동),,제주특별자치도,1899-8852,33.25398814,126.5706943,2019-06-30
"서귀포테니스장",주차장,제주특별자치도,연중무휴,00:00,23:59,N,Y,AC3상+DC차데모 +DC콤보,0,2,N,제주특별자치도 서귀포시 동홍로 99번길 36,,제주특별자치도,1899-8852,33.25759736,126.5642119,2019-06-30
"서귀포수협수산물직매장",주차장,제주특별자치도,연중무휴,00:00,23:59,Y,N,,1,0,N,제주특별자치도 서귀포시 칠십리로72번길 1(서귀동),,제주특별자치도,1899-8852,33.2395684,126.5644185,2019-06-30
"송산동주민센터",주차장,제주특별자치도,연중무휴,00:00,23:59,Y,N,,1,0,N,제주특별자치도 서귀포시 소암로 4(서귀동),,제주특별자치도,1899-8852,33.2450378,126.5661672,2019-06-30
"자치경찰단서귀포지역대청사",주차장,제주특별자치도,연중무휴,00:00,23:59,Y,N,,2,0,N,제주특별자치도 서귀포시 부두로 1(서귀동),,제주특별자치도,1899-8852,33.2450723,126.5658726,2019-06-30
"자치경찰단서귀포지역대청사",주차장,제주특별자치도,연중무휴,00:00,23:59,N,Y,AC3상+DC차데모 +DC콤보,0,1,N,제주특별자치도 서귀포시 부두로 1(서귀동),,환경부(한국자동차환경협회),1661-9408,33.2450723,126.5658726,2019-06-30
"정방동공영주차장",주차장,제주특별자치도,연중무휴,00:00,23:59,N,Y,AC3상+DC차데모 +DC콤보,0,2,N,제주특별자치도 서귀포시 서귀동 403-3,제주특별자치도 서귀포시 서귀동 403-3,제주특별자치도,1899-8852,33.247828,126.5631604,2019-06-30
"정방동주민센터",주차장,제주특별자치도,연중무휴,00:00,23:59,Y,N,,1,0,N,제주특별자치도 서귀포시 태평로421번길 7(서귀동),,제주특별자치도,1899-8852,33.2458588,126.5652696,2019-06-30
"걸매축구장",주차장,제주특별자치도,연중무휴,00:00,23:59,N,Y,AC3상+DC차데모 +DC콤보,0,2,N,제주특별자치도 서귀포시 서홍로 4-26(서홍동),,제주특별자치도,1899-8852,33.2493324,126.5545758,2019-06-30
"삼매봉도서관",주차장,제주특별자치도,연중무휴,00:00,23:59,Y,N,,1,0,N,제주특별자치도 서귀포시 남성중로153번길 15,,제주특별자치도,1899-8852,33.2446568,126.5517975,2019-06-30
"삼매봉도서관",주차장,제주특별자치도,연중무휴,00:00,23:59,N,Y,AC3상+DC차데모 +DC콤보,0,1,N,제주특별자치도 서귀포시 남성중로153번길 15,,환경부(한국자동차환경협회),1661-9408,33.2446568,126.5517975,2019-06-30
"서귀포보건소",주차장,제주특별자치도,연중무휴,00:00,23:59,Y,N,,8,0,N,제주특별자치도 서귀포시 중앙로101번길 52(서홍동),,제주특별자치도,1899-8852,33.2534258,126.5553625,2019-06-30
"서귀포시청 1청사",주차장,제주특별자치도,연중무휴,00:00,23:59,Y,Y,AC3상+DC차데모 +DC콤보,11,2,Y,제주특별자치도 서귀포시 중앙로 105(서홍동),,제주특별자치도,1899-8852,33.2540922,126.5601945,2019-06-30
"서귀포시청 1청사",주차장,제주특별자치도,연중무휴,00:00,23:59,N,Y,AC3상+DC차데모 +DC콤보,0,1,Y,제주특별자치도 서귀포시 중앙로 105(서홍동),,환경부(한국자동차환경협회),1661-9408,33.2540922,126.5601945,2019-06-30
"서귀포예술의전당",주차장,제주특별자치도,연중무휴,00:00,23:59,Y,Y,AC3상+DC차데모 +DC콤보,1,1,N,제주특별자치도 서귀포시 태평로 270(서홍동),,제주특별자치도,1899-8852,33.24633333,126.5507905,2019-06-30
"서귀포예술의전당",주차장,제주특별자치도,연중무휴,00:00,23:59,N,Y,AC3상+DC차데모 +DC콤보,0,1,N,제주특별자치도 서귀포시 태평로 270(서홍동),,환경부(한국자동차환경협회),1661-9408,33.24633333,126.5507905,2019-06-30
"서홍동주민센터",주차장,제주특별자치도,연중무휴,00:00,23:59,Y,N,,1,0,N,제주특별자치도 서귀포시 중앙로 125,제주특별자치도 서귀포시 서홍동 397-24,제주특별자치도,1899-8852,33.2558577,126.5602063,2019-06-30
"천지연폭포 주차장",주차장,제주특별자치도,연중무휴,00:00,23:59,Y,N,,1,0,N,제주특별자치도 서귀포시 남성중로 2-15(서홍동),,제주특별자치도,1899-8852,33.2447447,126.5597544,2019-06-30
"천지연폭포 주차장",주차장,제주특별자치도,연중무휴,00:00,23:59,N,Y,AC3상+DC차데모 +DC콤보,0,3,N,제주특별자치도 서귀포시 남성중로 2-15(서홍동),,환경부(한국자동차환경협회),1661-9408,33.2447447,126.5597544,2019-06-30
"서귀포시장애인종합사회복지관",주차장,제주특별자치도,연중무휴,00:00,23:59,N,Y,AC3상+DC차데모 +DC콤보,0,1,N,제주특별자치도 서귀포시 인정오름로 24,,제주특별자치도,1899-8852,33.2869372,126.5846411,2019-06-30
"영천동주민센터",주차장,제주특별자치도,연중무휴,00:00,23:59,Y,N,,1,0,N,제주특별자치도 서귀포시 토평로 15,,제주특별자치도,1899-8852,33.2687729,126.5867363,2019-06-30
"영천동주민센터",주차장,제주특별자치도,연중무휴,00:00,23:59,N,Y,AC3상+DC차데모 +DC콤보,0,1,N,제주특별자치도 서귀포시 토평로 15,,환경부(한국자동차환경협회),1661-9408,33.2687729,126.5867363,2019-06-30
"예래동주민센터",주차장,제주특별자치도,연중무휴,00:00,23:59,Y,N,,1,0,N,제주특별자치도 서귀포시 예래로 82(상예동),,제주특별자치도,1899-8852,33.2542814,126.3979513,2019-06-30
"예래동주민센터",주차장,제주특별자치도,연중무휴,00:00,23:59,N,Y,AC3상+DC차데모 +DC콤보,0,1,N,제주특별자치도 서귀포시 예래로 82(상예동),,한국전력,1899-2100,33.2542814,126.3979513,2019-06-30
"정방동문화의집",주차장,제주특별자치도,연중무휴,00:00,23:59,N,Y,AC3상+DC차데모 +DC콤보,0,1,N,제주특별자치도 서귀포시 동부로12번길 11,,제주특별자치도,1899-8852,33.2465421,126.5703477,2019-06-30
"구)중문동주민센터",주차장,제주특별자치도,연중무휴,00:00,23:59,Y,N,,1,0,N,제주특별자치도 서귀포시 천제연로 281(중문동),,제주특별자치도,1899-8852,33.2514374,126.4348664,2019-06-30
"색달쓰레기매립장",주차장,제주특별자치도,연중무휴,00:00,23:59,Y,N,,1,0,N,제주특별자치도 서귀포시 산록남로1241번길 145(색달동),,제주특별자치도,1899-8852,33.3070418,126.419081,2019-06-30
"색달쓰레기매립장",주차장,제주특별자치도,연중무휴,00:00,23:59,N,Y,AC3상+DC차데모 +DC콤보,0,2,N,제주특별자치도 서귀포시 산록남로1241번길 145(색달동),,환경부(한국자동차환경협회),1661-9408,33.3070418,126.419081,2019-06-30
"색달하수처리장",주차장,제주특별자치도,연중무휴,00:00,23:59,Y,N,,1,0,N,제주특별자치도 서귀포시 예래해안로 348(색달동),,제주특별자치도,1899-8852,33.2421105,126.3963773,2019-06-30
"서귀포자연휴양림",주차장,제주특별자치도,연중무휴,00:00,23:59,Y,N,,4,0,N,제주특별자치도 서귀포시 대포동 1100로 882,제주특별자치도 서귀포시 대포동 산1-1,제주특별자치도,1899-8852,33.3116678,126.4587607,2019-06-30
"자광원",주차장,제주특별자치도,연중무휴,00:00,23:59,N,Y,AC3상+DC차데모 +DC콤보,0,1,N,제주특별자치도 서귀포시 이어도로 343번길 101(대포동),,제주특별자치도,1899-8852,33.2477147,126.4485341,2019-06-30
"중문동주민센터",주차장,제주특별자치도,연중무휴,00:00,23:59,N,Y,AC3상+DC차데모 +DC콤보,0,1,N,제주특별자치도 서귀포시 1100로 30,,제주특별자치도,1899-8852,33.25333129,126.4336393,2019-06-30
"중문보건지소",주차장,제주특별자치도,연중무휴,00:00,23:59,Y,N,,1,0,N,제주특별자치도 서귀포시 천제연로 147(중문동),,제주특별자치도,1899-8852,33.2535153,126.4208709,2019-06-30
"중앙공영주차장",주차장,제주특별자치도,연중무휴,00:00,23:59,N,Y,AC3상+DC차데모 +DC콤보,0,2,Y,제주특별자치도 서귀포시 서귀동 291-63,제주특별자치도 서귀포시 서귀동 291-63,제주특별자치도,1899-8852,33.2499207,126.5599672,2019-06-30
"중앙공영주차장",주차장,제주특별자치도,연중무휴,00:00,23:59,N,Y,AC3상+DC차데모 +DC콤보,0,3,Y,제주특별자치도 서귀포시 서귀동 291-63,제주특별자치도 서귀포시 서귀동 291-63,환경부(한국자동차환경협회),1661-9408,33.2499207,126.5599672,2019-06-30
"중앙동주민센터",주차장,제주특별자치도,연중무휴,00:00,23:59,Y,N,,2,0,N,제주특별자치도 서귀포시 동문로 39(서귀동),,제주특별자치도,1899-8852,33.2506359,126.5649933,2019-06-30
"천지동주민센터",주차장,제주특별자치도,연중무휴,00:00,23:59,Y,N,,1,0,N,제주특별자치도 서귀포시 중정로47번길 3,,제주특별자치도,1899-8852,33.2477954,126.5612849,2019-06-30
"평생학습관 주차장",주차장,제주특별자치도,연중무휴,00:00,23:59,Y,N,,1,0,N,제주특별자치도 서귀포시 서문로29번길 10(서귀동),,제주특별자치도,1899-8852,33.2493458,126.5589224,2019-06-30
"효돈119센터",주차장,제주특별자치도,연중무휴,00:00,23:59,Y,N,,1,0,N,제주특별자치도 서귀포시 일주동로 8234(신효동),,제주특별자치도,1899-8852,33.260795,126.6078006,2019-06-30
"효돈동주민센터",주차장,제주특별자치도,연중무휴,00:00,23:59,Y,N,,1,0,N,제주특별자치도 서귀포시 효돈로152번길 7,,제주특별자치도,1899-8852,33.2633204,126.6156251,2019-06-30
"효돈동주민센터",주차장,제주특별자치도,연중무휴,00:00,23:59,N,Y,AC3상+DC차데모 +DC콤보,0,1,N,제주특별자치도 서귀포시 효돈로152번길 7,,환경부(한국자동차환경협회),1661-9408,33.2633204,126.6156251,2019-06-30
"효돈축구공원",주차장,제주특별자치도,연중무휴,00:00,23:59,N,Y,AC3상+DC차데모 +DC콤보,0,2,N,제주특별자치도 서귀포시 효돈순화로 311-29,제주특별자치도 서귀포시 신효동 910,제주특별자치도,1899-8852,33.2583809,126.6103677772,2019-06-30
"남원생활체육관",주차장,제주특별자치도,연중무휴,00:00,23:59,N,Y,AC3상+DC차데모 +DC콤보,0,1,N,제주특별자치도 서귀포시 남원읍 태위로 551-28,,제주특별자치도,1899-8852,33.27810723,126.705244,2019-06-30
"남원생활체육관",주차장,제주특별자치도,연중무휴,00:00,23:59,N,Y,AC3상+DC차데모 +DC콤보,0,2,N,제주특별자치도 서귀포시 남원읍 태위로 551-28,,제주특별자치도,1899-8852,33.27810723,126.705244,2019-06-30
"남원읍사무소",주차장,제주특별자치도,연중무휴,00:00,23:59,Y,Y,AC3상+DC차데모 +DC콤보,2,1,N,제주특별자치도 서귀포시 남원읍 태위로 695,,제주특별자치도,1899-8852,33.2797843,126.7205951,2019-06-30
"동부보건소",주차장,제주특별자치도,연중무휴,00:00,23:59,Y,N,,6,0,N,제주특별자치도 서귀포시 남원읍 태위로 527,,제주특별자치도,1899-8852,33.2757617,126.7034172,2019-06-30
"동부보건소",주차장,제주특별자치도,연중무휴,00:00,23:59,N,Y,AC3상+DC차데모 +DC콤보,0,1,N,제주특별자치도 서귀포시 남원읍 태위로 527,,환경부(한국자동차환경협회),1661-9408,33.2757617,126.7034172,2019-06-30
"서귀포농업기술센터",주차장,제주특별자치도,연중무휴,00:00,23:59,Y,N,,3,0,N,제주특별자치도 서귀포시 남원읍 중산간동로 7413,,제주특별자치도,1899-8852,33.28833481,126.6072502,2019-06-30
"서귀포농업기술센터",주차장,제주특별자치도,연중무휴,00:00,23:59,N,Y,AC3상+DC차데모 +DC콤보,0,3,N,제주특별자치도 서귀포시 남원읍 중산간동로 7413,,환경부(한국자동차환경협회),1661-9408,33.28833481,126.6072502,2019-06-30
"제주공천포전지훈련센터",주차장,제주특별자치도,연중무휴,00:00,23:59,N,Y,AC3상+DC차데모 +DC콤보,0,2,N,제주특별자치도 서귀포시 남원읍 신례로 96,,제주특별자치도,1899-8852,33.2771177,126.6413556,2019-06-30
"가파도 마을회관",주차장,제주특별자치도,연중무휴,00:00,23:59,Y,N,,1,0,N,제주특별자치도 서귀포시 대정읍 가파로 73,,제주특별자치도,1899-8852,33.1664333,126.2736156,2019-06-30
"대정 영어교육도시",주차장,제주특별자치도,연중무휴,00:00,23:59,Y,N,,1,0,N,제주특별자치도 서귀포시 대정읍 에듀시티로 86,,제주특별자치도,1899-8852,33.28794082,126.2818294,2019-06-30
"대정 영어교육도시",주차장,제주특별자치도,연중무휴,00:00,23:59,N,Y,AC3상+DC차데모 +DC콤보,0,2,N,제주특별자치도 서귀포시 대정읍 에듀시티로 86,,환경부(한국자동차환경협회),1661-9408,33.28794082,126.2818294,2019-06-30
"대정119센터",주차장,제주특별자치도,연중무휴,00:00,23:59,Y,N,,1,0,N,제주특별자치도 서귀포시 대정읍 일주서로 2717,,제주특별자치도,1899-8852,33.2324732,126.2410807,2019-06-30
"대정읍사무소",주차장,제주특별자치도,연중무휴,00:00,23:59,Y,N,,1,0,N,제주특별자치도 서귀포시 대정읍 하모중앙로 20,,제주특별자치도,1899-8852,33.2267537,126.2520832,2019-06-30
"하모2리주차장",주차장,제주특별자치도,연중무휴,00:00,23:59,N,Y,AC3상+DC차데모 +DC콤보,0,1,N,제주특별자치도 서귀포시 대정읍 하모리 1513,제주특별자치도 서귀포시 대정읍 하모리 1513,환경부(한국자동차환경협회),1661-9408,33.2238582,126.2504231,2019-06-30
"무릉문화의집",주차장,제주특별자치도,연중무휴,00:00,23:59,Y,N,,1,0,N,제주특별자치도 서귀포시 대정읍 서삼중로 128,,제주특별자치도,1899-8852,33.2734542,126.1990405,2019-06-30
"무릉문화의집",주차장,제주특별자치도,연중무휴,00:00,23:59,N,Y,AC3상+DC차데모 +DC콤보,0,1,N,제주특별자치도 서귀포시 대정읍 서삼중로 128,,환경부(한국자동차환경협회),1661-9408,33.2734542,126.1990405,2019-06-30
"서귀포시서부종합사회복지관",주차장,제주특별자치도,연중무휴,00:00,23:59,N,Y,AC3상+DC차데모 +DC콤보,0,2,N,제주특별자치도 서귀포시 대정읍 신영로 23,,제주특별자치도,1899-8852,33.22390252,126.2478797,2019-06-30
"서부보건소",주차장,제주특별자치도,연중무휴,00:00,23:59,Y,Y,AC3상+DC차데모 +DC콤보,4,1,N,제주특별자치도 서귀포시 대정읍 최남단해안로15번길 12,,제주특별자치도,1899-8852,33.2187035,126.2534156,2019-06-30
"송악산 공영주차장",주차장,제주특별자치도,연중무휴,00:00,23:59,N,Y,AC3상+DC차데모 +DC콤보,0,2,N,제주특별자치도 서귀포시 대정읍 상모리 165,,제주특별자치도,1899-8852,33.2059597,126.2867586,2019-06-30
"제주추사관",주차장,제주특별자치도,연중무휴,00:00,23:59,N,Y,AC3상+DC차데모 +DC콤보,0,1,N,제주특별자치도 서귀포시 대정읍 추사로 36번길 1,,제주특별자치도,1899-8852,33.2499613,126.2790157,2019-06-30
"제주추사관",주차장,제주특별자치도,연중무휴,00:00,23:59,N,Y,AC3상+DC차데모 +DC콤보,0,2,N,제주특별자치도 서귀포시 대정읍 추사로 36번길 1,,환경부(한국자동차환경협회),1661-9408,33.2499613,126.2790157,2019-06-30
"제주추사관",주차장,제주특별자치도,연중무휴,00:00,23:59,Y,N,,3,0,N,제주특별자치도 서귀포시 대정읍 추사로 36번길 1,,KT,1522-0123,33.2499613,126.2790157,2019-06-30
"동부소방서",주차장,제주특별자치도,연중무휴,00:00,23:59,Y,N,,1,0,N,제주특별자치도 서귀포시 성산읍 일주동로4120번길 7,,제주특별자치도,1899-8852,33.460229,126.9100702,2019-06-30
"동부소방서",주차장,제주특별자치도,연중무휴,00:00,23:59,N,Y,AC3상+DC차데모 +DC콤보,0,1,N,제주특별자치도 서귀포시 성산읍 일주동로4120번길 7,,환경부(한국자동차환경협회),1661-9408,33.460229,126.9100702,2019-06-30
"동부소방서",주차장,제주특별자치도,연중무휴,00:00,23:59,N,Y,AC3상+DC차데모 +DC콤보,0,1,N,제주특별자치도 서귀포시 성산읍 일주동로4120번길 7,,한국전력,1899-2100,33.460229,126.9100702,2019-06-30
"동부종합사회복지관",주차장,제주특별자치도,연중무휴,00:00,23:59,N,Y,AC3상+DC차데모 +DC콤보,0,2,N,제주특별자치도 서귀포시 성산읍 일출로 14-11,,제주특별자치도,1899-8852,33.4467084,126.9133734,2019-06-30
"성산보건지소",주차장,제주특별자치도,연중무휴,00:00,23:59,Y,N,,1,0,N,제주특별자치도 서귀포시 성산읍 고성오조로 42,,제주특별자치도,1899-8852,33.44655575,126.9157493,2019-06-30
"성산읍사무소",주차장,제주특별자치도,연중무휴,00:00,23:59,Y,Y,AC3상+DC차데모 +DC콤보,2,3,N,제주특별자치도 서귀포시 성산읍 일주동로 4330,,제주특별자치도,1899-8852,33.4424138,126.9110996,2019-06-30
"성산읍사무소",주차장,제주특별자치도,연중무휴,00:00,23:59,N,Y,AC3상+DC차데모 +DC콤보,0,1,N,제주특별자치도 서귀포시 성산읍 일주동로 4330,,환경부(한국자동차환경협회),1661-9408,33.4424138,126.9110996,2019-06-30
"신산 청소년 문화의 집",주차장,제주특별자치도,연중무휴,00:00,23:59,N,Y,AC3상+DC차데모 +DC콤보,0,1,N,제주특별자치도 서귀포시 성산읍 일주동로 5101-1,,제주특별자치도,1899-8852,33.3811222,126.8773508,2019-06-30
"혼인지",주차장,제주특별자치도,연중무휴,00:00,23:59,N,Y,AC3상+DC차데모 +DC콤보,0,2,N,제주특별자치도 서귀포시 성산읍 혼인지로 39-22,,제주특별자치도,1899-8852,33.4149305,126.8941019,2019-06-30
"안덕면사무소",주차장,제주특별자치도,연중무휴,00:00,23:59,Y,N,,4,0,N,제주특별자치도 서귀포시 안덕면 화순서서로 74,,제주특별자치도,1899-8852,33.2575319,126.3307426,2019-06-30
"안덕면사무소",주차장,제주특별자치도,연중무휴,00:00,23:59,N,Y,AC3상+DC차데모 +DC콤보,0,4,N,제주특별자치도 서귀포시 안덕면 화순서서로 74,,환경부(한국자동차환경협회),1661-9408,33.2575319,126.3307426,2019-06-30
"안덕산방도서관",주차장,제주특별자치도,연중무휴,00:00,23:59,Y,N,,1,0,N,제주특별자치도 서귀포시 안덕면 화순서서로 44,,제주특별자치도,1899-8852,33.2550127,126.3307261,2019-06-30
"붉은오름 자연휴양림",주차장,제주특별자치도,연중무휴,00:00,23:59,Y,N,,1,0,N,제주특별자치도 서귀포시 표선면 남조로 1487-73,,제주특별자치도,1899-8852,33.4018105,126.6753835,2019-06-30
"표선119센터",주차장,제주특별자치도,연중무휴,00:00,23:59,Y,N,,1,0,N,제주특별자치도 서귀포시 표선면 표선관정로 39-16,,제주특별자치도,1899-8852,33.3271647,126.8277779,2019-06-30
"표선면사무소",주차장,제주특별자치도,연중무휴,00:00,23:59,Y,N,,2,0,N,제주특별자치도 서귀포시 표선면 표선중앙로 74,,제주특별자치도,1899-8852,33.3262254,126.8321113,2019-06-30
"표선면사무소",주차장,제주특별자치도,연중무휴,00:00,23:59,N,Y,AC3상+DC차데모 +DC콤보,0,1,N,제주특별자치도 서귀포시 표선면 표선중앙로 74,,환경부(한국자동차환경협회),1661-9408,33.3262254,126.8321113,2019-06-30
"표선보건지소",주차장,제주특별자치도,연중무휴,00:00,23:59,Y,N,,1,0,N,제주특별자치도 서귀포시 표선면 표선중앙로 21,,제주특별자치도,1899-8852,33.3311424,126.8306129,2019-06-30
"해양수산연구원",주차장,제주특별자치도,연중무휴,00:00,23:59,Y,N,,1,0,N,제주특별자치도 서귀포시 표선면 민속해안로 292,,제주특별자치도,1899-8852,33.3074886,126.8293373,2019-06-30
"건입동주민센터",주차장,제주특별자치도,연중무휴,00:00,23:59,Y,N,,1,0,N,제주특별자치도 제주시 만덕로 18(건입동),,제주특별자치도,1899-8852,33.5150116,126.5315988,2019-06-30
"건입동주민센터",주차장,제주특별자치도,연중무휴,00:00,23:59,N,Y,AC3상+DC차데모 +DC콤보,0,1,N,제주특별자치도 제주시 만덕로 18(건입동),,환경부(한국자동차환경협회),1661-9408,33.5150116,126.5315988,2019-06-30
"제주시 평생학습센터",주차장,제주특별자치도,연중무휴,00:00,23:59,Y,Y,AC3상+DC차데모 +DC콤보,2,1,N,제주특별자치도 제주시 사라봉동길 15(건입동),,제주특별자치도,1899-8852,33.5140706,126.5474449,2019-06-30
"제주항여객터미널",주차장,제주특별자치도,연중무휴,00:00,23:59,N,Y,AC3상+DC차데모 +DC콤보,0,2,N,제주특별자치도 제주시 임항로 111,,제주특별자치도,1899-8852,33.51953529,126.5350373,2019-06-30
"제주해양관리단",주차장,제주특별자치도,연중무휴,00:00,23:59,Y,N,,2,0,N,제주특별자치도 제주시 임항로 128(건입동),,제주특별자치도,1899-8852,33.5192613,126.5375945,2019-06-30
"노형119센터",주차장,제주특별자치도,연중무휴,00:00,23:59,Y,N,,1,0,N,제주특별자치도 제주시 광평동로 2(노형동),,제주특별자치도,1899-8852,33.4810713,126.4723194,2019-06-30
"노형동주민센터",주차장,제주특별자치도,연중무휴,00:00,23:59,Y,N,,1,0,N,제주특별자치도 제주시 노형9길 9-4(노형동),,제주특별자치도,1899-8852,33.48306793,126.4771831,2019-06-30
"노형동주민센터",주차장,제주특별자치도,연중무휴,00:00,23:59,N,Y,AC3상+DC차데모 +DC콤보,0,2,N,제주특별자치도 제주시 노형9길 9-4(노형동),,환경부(한국자동차환경협회),1661-9408,33.48306793,126.4771831,2019-06-30
"노형삼다아파트 앞 공영주차장",주차장,제주특별자치도,연중무휴,00:00,23:59,N,Y,AC3상+DC차데모 +DC콤보,0,2,Y,제주특별자치도 제주시 노형동 1282-2,,제주특별자치도,1899-8852,33.4863121,126.4763326,2019-06-30
"제주도근로자종합복지관",주차장,제주특별자치도,연중무휴,00:00,23:59,N,Y,AC3상+DC차데모 +DC콤보,0,2,Y,제주특별자치도 제주시 수목원길 9,,제주특별자치도,1899-8852,33.46969727,126.486231,2019-06-30
"제주시 공영버스 주차장",주차장,제주특별자치도,연중무휴,00:00,23:59,Y,N,,1,0,N,제주특별자치도 제주시 수목원서길 17(노형동),,제주특별자치도,1899-8852,33.4688568,126.4831695,2019-06-30
"축산진흥원",주차장,제주특별자치도,연중무휴,00:00,23:59,Y,Y,AC3상+DC차데모 +DC콤보,1,1,N,제주특별자치도 제주시 축산마을길 13(노형동),,제주특별자치도,1899-8852,33.4414666,126.4871027,2019-06-30
"탐라도서관",주차장,제주특별자치도,연중무휴,00:00,23:59,N,Y,AC3상+DC차데모 +DC콤보,0,3,N,제주특별자치도 제주시 정원로 50,,제주특별자치도,1899-8852,33.47919835,126.4771977,2019-06-30
"도두동주민센터",주차장,제주특별자치도,연중무휴,00:00,23:59,Y,N,,1,0,N,제주특별자치도 제주시 도두1길 9-1(도두일동),,제주특별자치도,1899-8852,33.5028684,126.4682368,2019-06-30
"도두동주민센터",주차장,제주특별자치도,연중무휴,00:00,23:59,N,Y,AC3상+DC차데모 +DC콤보,0,1,N,제주특별자치도 제주시 도두1길 9-1(도두일동),,한국전력,1899-2100,33.5028684,126.4682368,2019-06-30
"도두하수처리장",주차장,제주특별자치도,연중무휴,00:00,23:59,Y,N,,1,0,N,제주특별자치도 제주시 도리로 254(도두이동),,제주특별자치도,1899-8852,33.5066984,126.4770985,2019-06-30
"봉개동주민센터",주차장,제주특별자치도,연중무휴,00:00,23:59,Y,N,,1,0,N,제주특별자치도 제주시 봉개북1길 15(봉개동),,제주특별자치도,1899-8852,33.4917114,126.5948784,2019-06-30
"봉개동주민센터",주차장,제주특별자치도,연중무휴,00:00,23:59,N,Y,AC3상+DC차데모 +DC콤보,0,1,N,제주특별자치도 제주시 봉개북1길 15(봉개동),,환경부(한국자동차환경협회),1661-9408,33.4917114,126.5948784,2019-06-30
"절물자연휴양림",주차장,제주특별자치도,연중무휴,00:00,23:59,Y,Y,AC3상+DC차데모 +DC콤보,1,1,N,제주특별자치도 제주시 명림로 584(봉개동),,제주특별자치도,1899-8852,33.4393726,126.6284479,2019-06-30
"제주4.3평화공원",주차장,제주특별자치도,연중무휴,00:00,23:59,N,Y,AC3상+DC차데모 +DC콤보,0,1,N,제주특별자치도 제주시 명림로 430(봉개동),,제주특별자치도,1899-8852,33.45086927,126.6206776,2019-06-30
"제주환경사무소",주차장,제주특별자치도,연중무휴,00:00,23:59,Y,N,,1,0,N,제주특별자치도 제주시 송이길 226(회천동),,제주특별자치도,1899-8852,33.46136662,126.6299215,2019-06-30
"삼도1동청소년문화의집",주차장,제주특별자치도,연중무휴,00:00,23:59,Y,N,,1,0,N,제주특별자치도 제주시 서사로14길 16,,제주특별자치도,1899-8852,33.5036928,126.5182971,2019-06-30
"삼도1동 주민센터",주차장,제주특별자치도,연중무휴,00:00,23:59,Y,N,,2,0,N,제주특별자치도 제주시 삼도1동 508-4,제주특별자치도 제주시 삼도1동 508-4,제주특별자치도,1899-8852,33.5042444,126.5173858,2019-06-30
"삼도2동주민센터",주차장,제주특별자치도,연중무휴,00:00,23:59,Y,N,,1,0,N,제주특별자치도 제주시 관덕로6길 15,,제주특별자치도,1899-8852,33.5117299,126.5222682,2019-06-30
"해변공연장",주차장,제주특별자치도,연중무휴,00:00,23:59,N,Y,AC3상+DC차데모 +DC콤보,0,1,N,제주특별자치도 제주시 중앙로 2,,제주특별자치도,1899-8852,33.518116,126.5241853,2019-06-30
"삼양동주민센터",주차장,제주특별자치도,연중무휴,00:00,23:59,Y,Y,AC3상+DC차데모 +DC콤보,1,1,N,제주특별자치도 제주시 지석13길 6(삼양이동),,제주특별자치도,1899-8852,33.5218396,126.5857081,2019-06-30
"삼양동주민센터",주차장,제주특별자치도,연중무휴,00:00,23:59,N,Y,AC3상+DC차데모 +DC콤보,0,1,N,제주특별자치도 제주시 516로 3120(아라1동),,환경부(한국자동차환경협회),1661-9408,33.4526894,126.5531188,2019-06-30
"도장애인종합복지관",주차장,제주특별자치도,연중무휴,00:00,23:59,N,Y,AC3상+DC차데모 +DC콤보,0,1,N,제주특별자치도 제주시 516로 3120(아라1동),,제주특별자치도,1899-8852,33.4526894,126.5531188,2019-06-30
"아라동주민센터",주차장,제주특별자치도,연중무휴,00:00,23:59,Y,Y,AC3상+DC차데모 +DC콤보,1,1,N,제주특별자치도 제주시 중앙로 527(아라일동),,제주특별자치도,1899-8852,33.4763055,126.5450535,2019-06-30
"아라지구 공영주차장",주차장,제주특별자치도,연중무휴,00:00,23:59,N,Y,AC3상+DC차데모 +DC콤보,0,1,N,제주특별자치도 제주시 아라1동 6093-4,제주특별자치도 제주시 아라1동 6093-4,제주특별자치도,1899-8852,33.4261379,126.5626925,2019-06-30
"양지공원",주차장,제주특별자치도,연중무휴,00:00,23:59,Y,Y,AC3상+DC차데모 +DC콤보,5,1,N,제주특별자치도 제주시 516로 2810-31,,제주특별자치도,1899-8852,33.4400136,126.5799838,2019-06-30
"양지공원",주차장,제주특별자치도,연중무휴,00:00,23:59,N,Y,DC콤보,0,2,N,제주특별자치도 제주시 516로 2810-31,,환경부(한국자동차환경협회),1661-9408,33.4400136,126.5799838,2019-06-30
"인재개발원",주차장,제주특별자치도,연중무휴,00:00,23:59,Y,Y,AC3상+DC차데모 +DC콤보,2,2,N,제주특별자치도 제주시 산천단동길 26(아라일동),,제주특별자치도,1899-8852,33.4468976,126.5601614,2019-06-30
"인재개발원",주차장,제주특별자치도,연중무휴,00:00,23:59,N,Y,AC3상+DC차데모 +DC콤보,0,1,N,제주특별자치도 제주시 산천단동길 26(아라일동),,환경부(한국자동차환경협회),1661-9408,33.4468976,126.5601614,2019-06-30
"자치경찰단아라청사",주차장,제주특별자치도,연중무휴,00:00,23:59,Y,N,,6,0,N,제주특별자치도 제주시 기자길 7(아라이동),,제주특별자치도,1899-8852,33.4850238,126.5442901,2019-06-30
"자치경찰단아라청사",주차장,제주특별자치도,연중무휴,00:00,23:59,N,Y,AC3상+DC차데모 +DC콤보,0,1,N,제주특별자치도 제주시 기자길 7(아라이동),,환경부(한국자동차환경협회),1661-9408,33.4850238,126.5442901,2019-06-30
"제주시각장애인복지관",주차장,제주특별자치도,연중무휴,00:00,23:59,N,Y,AC3상+DC차데모 +DC콤보,0,1,N,제주특별자치도 제주시 아봉로 433,,제주특별자치도,1899-8852,33.4710751,126.581262,2019-06-30
"보건환경연구원",주차장,제주특별자치도,연중무휴,00:00,23:59,Y,N,,1,0,N,제주특별자치도 제주시 삼동길 41,,제주특별자치도,1899-8852,33.4798486,126.4951395,2019-06-30
"보건환경연구원",주차장,제주특별자치도,연중무휴,00:00,23:59,N,Y,AC3상+DC차데모 +DC콤보,0,1,N,제주특별자치도 제주시 삼동길 41,,환경부(한국자동차환경협회),1661-9408,33.4798486,126.4951395,2019-06-30
"설문대여성문화센터",주차장,제주특별자치도,연중무휴,00:00,23:59,Y,N,,1,0,N,제주특별자치도 제주시 선덕로8길 12,,제주특별자치도,1899-8852,33.4844207,126.500595,2019-06-30
"설문대여성문화센터",주차장,제주특별자치도,연중무휴,00:00,23:59,N,Y,AC3상+DC차데모 +DC콤보,0,1,N,제주특별자치도 제주시 선덕로8길 12,,환경부(한국자동차환경협회),1661-9408,33.4844207,126.500595,2019-06-30
"연동119센터",주차장,제주특별자치도,연중무휴,00:00,23:59,Y,N,,1,0,N,제주특별자치도 제주시 문송길 14(연동),,제주특별자치도,1899-8852,33.4884767,126.4971594,2019-06-30
"연동주민센터",주차장,제주특별자치도,연중무휴,00:00,23:59,Y,N,,1,0,N,제주특별자치도 제주시 신대로 101,,제주특별자치도,1899-8852,33.4882923,126.4969722,2019-06-30
"제주도 소방안전본부",주차장,제주특별자치도,연중무휴,00:00,23:59,Y,N,,3,0,N,제주특별자치도 제주시 신대로9길 22,,제주특별자치도,1899-8852,33.490553,126.4990195,2019-06-30
"제주도교육청",주차장,제주특별자치도,연중무휴,00:00,23:59,N,Y,AC3상+DC차데모 +DC콤보,0,1,N,제주특별자치도 제주시 문연로 5(연동),,제주특별자치도,1899-8852,33.4902703,126.4982303,2019-06-30
"제주도교육청",주차장,제주특별자치도,연중무휴,00:00,23:59,N,Y,AC3상+DC차데모 +DC콤보,0,2,N,제주특별자치도 제주시 문연로 5(연동),,한국전력,1899-2100,33.4902703,126.4982303,2019-06-30
"제주도의회",주차장,제주특별자치도,연중무휴,00:00,23:59,Y,Y,AC3상+DC차데모 +DC콤보,1,2,N,제주특별자치도 제주시 문연로 13,,제주특별자치도,1899-8852,33.4903182,126.4992861,2019-06-30
"제주도청 1청사",주차장,제주특별자치도,연중무휴,00:00,23:59,Y,Y,AC3상+DC차데모 +DC콤보,10,6,Y,제주특별자치도 제주시 문연로 6(연동),,제주특별자치도,1899-8852,33.4888341,126.4980797,2019-06-30
"제주도청 1청사",주차장,제주특별자치도,연중무휴,00:00,23:59,N,Y,AC3상+DC차데모 +DC콤보,0,1,Y,제주특별자치도 제주시 문연로 6(연동),,환경부(한국자동차환경협회),1661-9408,33.4888341,126.4980797,2019-06-30
"제주도청 2청사",주차장,제주특별자치도,연중무휴,00:00,23:59,Y,N,,5,0,N,제주특별자치도 제주시 문연로 30(연동),,제주특별자치도,1899-8852,33.4890071,126.5006816,2019-06-30
"제주도청 2청사",주차장,제주특별자치도,연중무휴,00:00,23:59,N,Y,AC3상+DC차데모,0,1,N,제주특별자치도 제주시 문연로 30(연동),,환경부(한국자동차환경협회),1661-9408,33.4890071,126.5006816,2019-06-30
"제주도청 2청사 후문 공영주차장",주차장,제주특별자치도,연중무휴,00:00,23:59,N,Y,AC3상+DC차데모 +DC콤보,0,2,Y,제주특별자치도 제주시 연동 322-8,제주특별자치도 제주시 연동 322-8,제주특별자치도,1899-8852,33.4881996,126.5001059,2019-06-30
"한라수목원",주차장,제주특별자치도,연중무휴,00:00,23:59,Y,N,,1,0,Y,제주특별자치도 제주시 수목원길 72,,제주특별자치도,1899-8852,33.4699272,126.4932445,2019-06-30
"한라수목원",주차장,제주특별자치도,연중무휴,00:00,23:59,N,Y,AC3상+DC차데모 +DC콤보,0,1,Y,제주특별자치도 제주시 수목원길 72,,환경부(한국자동차환경협회),1661-9408,33.4699272,126.4932445,2019-06-30
"오라동주민센터",주차장,제주특별자치도,연중무휴,00:00,23:59,Y,Y,AC3상+DC차데모 +DC콤보,1,1,N,제주특별자치도 제주시 오라로10길 6(오라이동),,제주특별자치도,1899-8852,33.4951336,126.511555,2019-06-30
"제주아트센터",주차장,제주특별자치도,연중무휴,00:00,23:59,Y,N,,1,0,N,제주특별자치도 제주시 오남로 231(오라이동)　,,제주특별자치도,1899-8852,33.4754636,126.5156482,2019-06-30
"제주종합경기장",주차장,제주특별자치도,연중무휴,00:00,23:59,Y,N,,3,0,N,제주특별자치도 제주시 서광로2길 24(오라일동),,제주특별자치도,1899-8852,33.4949885,126.5189264,2019-06-30
"제주종합경기장",주차장,제주특별자치도,연중무휴,00:00,23:59,N,Y,AC3상+DC차데모 +DC콤보,0,5,N,제주특별자치도 제주시 서광로2길 24(오라일동),,한국전력,1899-2100,33.4949885,126.5189264,2019-06-30
"제주종합경기장",주차장,제주특별자치도,연중무휴,00:00,23:59,N,Y,AC3상+DC차데모 +DC콤보,0,2,N,제주특별자치도 제주시 서광로2길 24(오라일동),,환경부(한국자동차환경협회),1661-9408,33.4949885,126.5189264,2019-06-30
"제주춘강의원",주차장,제주특별자치도,연중무휴,00:00,23:59,N,Y,AC3상+DC차데모 +DC콤보,0,1,N,제주특별자치도 제주시 월구 1길 73,,제주특별자치도,1899-8852,33.493696,126.5017091,2019-06-30
"외도1동 공영주차장",주차장,제주특별자치도,연중무휴,00:00,23:59,N,Y,AC3상+DC차데모 +DC콤보,0,1,N,제주특별자치도 제주시 외도1동 497-16,제주특별자치도 제주시 외도1동 497-16,제주특별자치도,1899-8852,33.4876623,126.429739,2019-06-30
"외도동주민센터",주차장,제주특별자치도,연중무휴,00:00,23:59,Y,N,,1,0,N,제주특별자치도 제주시 일주서로 7350,,제주특별자치도,1899-8852,33.4929556,126.4322517,2019-06-30
"외도동주민센터",주차장,제주특별자치도,연중무휴,00:00,23:59,N,Y,AC3상+DC차데모 +DC콤보,0,1,N,제주특별자치도 제주시 일주서로 7350,,환경부(한국자동차환경협회),1661-9408,33.4929556,126.4322517,2019-06-30
"제주도농아복지관",주차장,제주특별자치도,연중무휴,00:00,23:59,Y,Y,AC3상+DC차데모 +DC콤보,2,2,N,제주특별자치도 제주시 우령서로16길 19(외도일동),,제주특별자치도,1899-8852,33.4848735,126.4257375,2019-06-30
"제주양로원",주차장,제주특별자치도,연중무휴,00:00,23:59,Y,Y,AC3상+DC차데모 +DC콤보,2,1,N,제주특별자치도 제주시 장군내길 68-1,,제주특별자치도,1899-8852,33.4736727,126.4482646,2019-06-30
"용담1동주민센터",주차장,제주특별자치도,연중무휴,00:00,23:59,Y,N,,1,0,N,제주특별자치도 제주시 용남3길 11(용담일동),,제주특별자치도,1899-8852,33.5091014,126.5133435,2019-06-30
"용담2동주민센터",주차장,제주특별자치도,연중무휴,00:00,23:59,Y,Y,AC3상+DC차데모 +DC콤보,1,1,N,제주특별자치도 제주시 흥운길 27(용담이동),,제주특별자치도,1899-8852,33.5115829,126.5118008,2019-06-30
"이도1동주민센터",주차장,제주특별자치도,연중무휴,00:00,23:59,Y,N,,1,0,N,제주특별자치도 제주시 중앙로25길 17(이도일동),,제주특별자치도,1899-8852,33.5067302,126.5270745,2019-06-30
"이도1동주민센터",주차장,제주특별자치도,연중무휴,00:00,23:59,N,Y,AC3상+DC차데모 +DC콤보,0,1,N,제주특별자치도 제주시 중앙로25길 17(이도일동),,환경부(한국자동차환경협회),1661-9408,33.5067302,126.5270745,2019-06-30
"동부경찰서",주차장,제주특별자치도,연중무휴,00:00,23:59,N,Y,AC3상+DC차데모 +DC콤보,0,2,N,제주특별자치도 제주시 동광로 66,,제주특별자치도,1899-8852,33.50317947,126.5367089,2019-06-30
"이도2동공영주차장",주차장,제주특별자치도,연중무휴,00:00,23:59,N,Y,AC3상+DC차데모 +DC콤보,0,2,Y,제주특별자치도 제주시 오복3길 9(이도이동),,제주특별자치도,1899-8852,33.49678952,126.5349264,2019-06-30
"이도2동주민센터",주차장,제주특별자치도,연중무휴,00:00,23:59,Y,N,,1,0,N,제주특별자치도 제주시 오복3길 8,,제주특별자치도,1899-8852,33.497027,126.5353955,2019-06-30
"제주벤처마루",주차장,제주특별자치도,연중무휴,00:00,23:59,N,Y,AC3상+DC차데모 +DC콤보,0,1,N,제주특별자치도 제주시 중앙로 217(이도이동),,제주특별자치도,1899-8852,33.5003147,126.5300349,2019-06-30
"제주보건소",주차장,제주특별자치도,연중무휴,00:00,23:59,Y,Y,AC3상+DC차데모 +DC콤보,4,1,N,제주특별자치도 제주시 연삼로 264,,제주특별자치도,1899-8852,33.4917032,126.5202864,2019-06-30
"제주소방서",주차장,제주특별자치도,연중무휴,00:00,23:59,Y,N,,4,0,N,　제주특별자치도 제주시 중앙로 342(이도이동),,제주특별자치도,1899-8852,33.4909396,126.5366274,2019-06-30
"제주시청",주차장,제주특별자치도,연중무휴,00:00,23:59,Y,Y,AC3상+DC차데모 +DC콤보,11,5,Y,제주특별자치도 제주시 광양9길 10,,제주특별자치도,1899-8852,33.50021259,126.5322178,2019-06-30
"제주시청",주차장,제주특별자치도,연중무휴,00:00,23:59,N,Y,AC3상+DC차데모,0,1,Y,제주특별자치도 제주시 광양9길 10,,환경부(한국자동차환경협회),1661-9408,33.50021259,126.5322178,2019-06-30
"제주시청 지하 열린정보실",주차장,제주특별자치도,연중무휴,00:00,23:59,Y,N,,3,0,N,제주특별자치도 제주시 동광로6길 22(이도이동),,제주특별자치도,1899-8852,33.50027862,126.5325144,2019-06-30
"제주학생문화원",주차장,제주특별자치도,연중무휴,00:00,23:59,N,Y,AC3상+DC차데모 +DC콤보,0,1,N,제주특별자치도 제주시 연삼로 489,,제주특별자치도,1899-8852,33.5007234,126.5410454,2019-06-30
"고용센터",주차장,제주특별자치도,연중무휴,00:00,23:59,Y,Y,AC3상+DC차데모 +DC콤보,1,1,N,제주특별자치도 제주시 중앙로 165 (이도일동),,제주특별자치도,1899-8852,33.5044201,126.5271265,2019-06-30
"이호동주민센터",주차장,제주특별자치도,연중무휴,00:00,23:59,Y,N,,1,0,N,제주특별자치도 제주시 백포서길 9(이호일동),,제주특별자치도,1899-8852,33.4997537,126.4581461,2019-06-30
"이호동주민센터",주차장,제주특별자치도,연중무휴,00:00,23:59,N,Y,AC3상+DC차데모 +DC콤보,0,1,N,제주특별자치도 제주시 백포서길 9(이호일동),,환경부(한국자동차환경협회),1661-9408,33.4997537,126.4581461,2019-06-30
"일도1동주민센터",주차장,제주특별자치도,연중무휴,00:00,23:59,Y,N,,1,0,N,제주특별자치도 제주시 중앙로7길 15,,제주특별자치도,1899-8852,33.5150703,126.5264434,2019-06-30
"문화예술진흥원",주차장,제주특별자치도,연중무휴,00:00,23:59,Y,Y,AC3상+DC차데모 +DC콤보,2,1,N,제주특별자치도 제주시 동광로 69(일도이동),,제주특별자치도,1899-8852,33.5043089,126.5353859,2019-06-30
"민속자연사박물관",주차장,제주특별자치도,연중무휴,00:00,23:59,Y,N,,1,0,N,제주특별자치도 제주시 삼성로 40(일도이동),,제주특별자치도,1899-8852,33.5061399,126.5316454,2019-06-30
"민속자연사박물관",주차장,제주특별자치도,연중무휴,00:00,23:59,N,Y,AC3상+DC차데모 +DC콤보,0,1,N,제주특별자치도 제주시 삼성로 40(일도이동),,환경부(한국자동차환경협회),1661-9408,33.5061399,126.5316454,2019-06-30
"일도2동주민센터",주차장,제주특별자치도,연중무휴,00:00,23:59,Y,N,,1,0,N,제주특별자치도 제주시 고마로 28,,제주특별자치도,1899-8852,33.5116144,126.5382172,2019-06-30
"일도삼주아파트",주차장,제주특별자치도,연중무휴,00:00,23:59,N,Y,AC3상+DC차데모 +DC콤보,0,1,N,제주특별자치도 제주시 천수로 56(일도이동),,제주특별자치도,1899-8852,33.5039515,126.5426023,2019-06-30
"제주문화콘텐츠진흥원",주차장,제주특별자치도,연중무휴,00:00,23:59,N,Y,AC3상+DC차데모 +DC콤보,0,2,N,제주특별자치도 제주시 신산로 82(일도이동),,제주특별자치도,1899-8852,33.5054697,126.5345108,2019-06-30
"제주애덕의집",주차장,제주특별자치도,연중무휴,00:00,23:59,N,Y,AC3상+DC차데모 +DC콤보,0,1,N,제주특별자치도 제주시 기와5길 87,,제주특별자치도,1899-8852,33.49013392,126.5580751,2019-06-30
"화북119센터",주차장,제주특별자치도,연중무휴,00:00,23:59,Y,N,,1,0,N,　제주특별자치도 제주시 동화로 1길 3(화북일동),,제주특별자치도,1899-8852,33.5194139,126.5735544,2019-06-30
"화북동주민센터",주차장,제주특별자치도,연중무휴,00:00,23:59,Y,N,,1,0,N,제주특별자치도 제주시 진남로6길 17(화북일동),,제주특별자치도,1899-8852,33.520225,126.5654876,2019-06-30
"화북동주민센터",주차장,제주특별자치도,연중무휴,00:00,23:59,N,Y,AC3상+DC차데모 +DC콤보,0,1,N,제주특별자치도 제주시 진남로6길 17(화북일동),,환경부(한국자동차환경협회),1661-9408,33.520225,126.5654876,2019-06-30
"구좌읍주민센터",주차장,제주특별자치도,연중무휴,00:00,23:59,Y,Y,AC3상+DC차데모 +DC콤보,4,1,N,제주특별자치도 제주시 일주동로 3116,,제주특별자치도,1899-8852,33.5225168,126.8518012,2019-06-30
"구좌읍주민센터",주차장,제주특별자치도,연중무휴,00:00,23:59,N,Y,AC3상+DC차데모,0,1,N,제주특별자치도 제주시 일주동로 3116,,환경부(한국자동차환경협회),1661-9408,33.5225168,126.8518012,2019-06-30
"동부농업기술센터",주차장,제주특별자치도,연중무휴,00:00,23:59,Y,N,,1,0,N,제주특별자치도 제주시 구좌읍 김녕남6길 8,,제주특별자치도,1899-8852,33.5500699,126.750406,2019-06-30
"동부농업기술센터",주차장,제주특별자치도,연중무휴,00:00,23:59,N,Y,AC3상+DC차데모 +DC콤보,0,1,N,제주특별자치도 제주시 구좌읍 김녕남6길 8,,한국전력,1899-2100,33.5500699,126.750406,2019-06-30
"동부농업기술센터 교육장",주차장,제주특별자치도,연중무휴,00:00,23:59,Y,N,,1,0,N,제주특별자치도 제주시 구좌읍 충렬로 166,,제주특별자치도,1899-8852,33.51094222,126.8426837,2019-06-30
"동부보건소",주차장,제주특별자치도,연중무휴,00:00,23:59,Y,N,,4,0,N,제주특별자치도 제주시 구좌읍 김녕로14길 6,,제주특별자치도,1899-8852,33.5543773,126.7513422,2019-06-30
"동부보건소",주차장,제주특별자치도,연중무휴,00:00,23:59,N,Y,AC3상+DC차데모 +DC콤보,0,2,N,제주특별자치도 제주시 구좌읍 김녕로14길 6,,한국전력,1899-2100,33.5543773,126.7513422,2019-06-30
"동제주종합사회복지관",주차장,제주특별자치도,연중무휴,00:00,23:59,N,Y,AC3상+DC차데모 +DC콤보,0,1,N,제주특별자치도 제주시 구좌읍 평대12길 15,,제주특별자치도,1899-8852,33.5230697,126.8487174,2019-06-30
"소망요양원",주차장,제주특별자치도,연중무휴,00:00,23:59,N,Y,AC3상+DC차데모 +DC콤보,0,1,N,제주특별자치도 제주시 구좌읍 동김길 150,,제주특별자치도,1899-8852,33.547644,126.7316366,2019-06-30
"농산물원종장",주차장,제주특별자치도,연중무휴,00:00,23:59,Y,N,,1,0,N,제주특별자치도 제주시 애월읍 월각로 563-20,,제주특별자치도,1899-8852,33.3755161,126.3286573,2019-06-30
"애월119센터",주차장,제주특별자치도,연중무휴,00:00,23:59,Y,N,,1,0,N,제주특별자치도 제주시 애월읍 일주서로 6513,,제주특별자치도,1899-8852,33.4666589,126.3488567,2019-06-30
"애월119센터",주차장,제주특별자치도,연중무휴,00:00,23:59,N,Y,AC3상+DC차데모 +DC콤보,0,2,N,제주특별자치도 제주시 애월읍 일주서로 6513,,한국전력,1899-2100,33.4666589,126.3488567,2019-06-30
"애월체육관",주차장,제주특별자치도,연중무휴,00:00,23:59,Y,N,,2,0,N,제주특별자치도 제주시 애월읍 일주서로 6349,,제주특별자치도,1899-8852,33.46298979,126.3319658,2019-06-30
"제주농업기술센터",주차장,제주특별자치도,연중무휴,00:00,23:59,Y,N,,1,0,N,제주특별자치도 제주시 애월읍 상귀길 173,,제주특별자치도,1899-8852,33.4592643,126.403769,2019-06-30
"제주농업기술센터",주차장,제주특별자치도,연중무휴,00:00,23:59,N,Y,AC3상+DC차데모 +DC콤보,0,1,N,제주특별자치도 제주시 애월읍 상귀길 173,,환경부(한국자동차환경협회),1661-9408,33.4592643,126.403769,2019-06-30
"우도면사무소",주차장,제주특별자치도,연중무휴,00:00,23:59,Y,N,,1,0,N,제주특별자치도 제주시 우도면 우도로 153,,제주특별자치도,1899-8852,33.5063307,126.953232,2019-06-30
"우도보건지소",주차장,제주특별자치도,연중무휴,00:00,23:59,Y,N,,1,0,N,제주특별자치도 제주시 우도면 우도로 153,,제주특별자치도,1899-8852,33.5063307,126.953232,2019-06-30
"상하수도본부",주차장,제주특별자치도,연중무휴,00:00,23:59,Y,Y,AC3상+DC차데모 +DC콤보,2,1,N,제주특별자치도 제주시 조천읍 중산간동로 601,,제주특별자치도,1899-8852,33.4996454,126.6503584,2019-06-30
"상하수도본부",주차장,제주특별자치도,연중무휴,00:00,23:59,N,Y,AC3상+DC차데모 +DC콤보,0,1,N,제주특별자치도 제주시 조천읍 중산간동로 601,,환경부(한국자동차환경협회),1661-9408,33.4996454,126.6503584,2019-06-30
"제주돌문화공원",주차장,제주특별자치도,연중무휴,00:00,23:59,Y,N,,1,0,N,제주특별자치도 제주시 조천읍 남조로 2023,,제주특별자치도,1899-8852,33.4486627,126.6589493,2019-06-30
"제주돌문화공원",주차장,제주특별자치도,연중무휴,00:00,23:59,N,Y,AC3상+DC차데모 +DC콤보,0,4,N,제주특별자치도 제주시 조천읍 남조로 2023,,환경부(한국자동차환경협회),1661-9408,33.4486627,126.6589493,2019-06-30
"제주동물위생시험소",주차장,제주특별자치도,연중무휴,00:00,23:59,N,Y,AC3상+DC차데모 +DC콤보,0,1,N,제주특별자치도 제주시 조천읍 번영로 941,,제주특별자치도,1899-8852,33.4757908,126.6381228,2019-06-30
"제주세계자연유산센터",주차장,제주특별자치도,연중무휴,00:00,23:59,N,Y,AC3상+DC차데모 +DC콤보,0,3,N,제주특별자치도 제주시 조천읍 선교로 569-36,,제주특별자치도,1899-8852,33.4569205,126.7147513,2019-06-30
"조천 항일기념관",주차장,제주특별자치도,연중무휴,00:00,23:59,Y,N,,1,0,N,　제주특별자치도 제주시 조천읍 신북로 303,,제주특별자치도,1899-8852,33.5415236,126.6425739,2019-06-30
"조천 항일기념관",주차장,제주특별자치도,연중무휴,00:00,23:59,N,Y,DC콤보,0,2,N,　제주특별자치도 제주시 조천읍 신북로 303,,환경부(한국자동차환경협회),1661-9408,33.5415236,126.6425739,2019-06-30
"조천119센터",주차장,제주특별자치도,연중무휴,00:00,23:59,Y,N,,1,0,N,제주특별자치도 제주시 조천리 833-5,제주특별자치도 제주시 조천리 833-5,제주특별자치도,1899-8852,33.5410941,126.6469034,2019-06-30
"조천119센터",주차장,제주특별자치도,연중무휴,00:00,23:59,N,Y,AC3상+DC차데모 +DC콤보,0,1,N,제주특별자치도 제주시 조천리 833-5,제주특별자치도 제주시 조천리 833-5,한국전력,1899-2100,33.5410941,126.6469034,2019-06-30
"조천읍사무소",주차장,제주특별자치도,연중무휴,00:00,23:59,Y,Y,AC3상+DC차데모 +DC콤보,3,1,N,제주특별자치도 제주시 조천읍 신북로 194,,제주특별자치도,1899-8852,33.5345995,126.6342946,2019-06-30
"조천읍사무소",주차장,제주특별자치도,연중무휴,00:00,23:59,N,Y,DC콤보,0,2,N,제주특별자치도 제주시 조천읍 신북로 194,,환경부(한국자동차환경협회),1661-9408,33.5345995,126.6342946,2019-06-30
"조천체육관",주차장,제주특별자치도,연중무휴,00:00,23:59,N,Y,AC3상+DC차데모 +DC콤보,0,1,N,제주특별자치도 제주시 조천읍 조천18길 11-1,,제주특별자치도,1899-8852,33.5397165,126.6439447,2019-06-30
"조천체육관",주차장,제주특별자치도,연중무휴,00:00,23:59,N,Y,AC3상+DC차데모 +DC콤보,0,1,N,제주특별자치도 제주시 조천읍 조천18길 11-1,,환경부(한국자동차환경협회),1661-9408,33.5397165,126.6439447,2019-06-30
"추자도보건지소",주차장,제주특별자치도,연중무휴,00:00,23:59,Y,N,,1,0,N,제주특별자치도 제주시 영흥리 364-13,제주특별자치도 제주시 영흥리 364-13,제주특별자치도,1899-8852,33.9604004,126.2960433,2019-06-30
"추자면사무소",주차장,제주특별자치도,연중무휴,00:00,23:59,Y,N,,1,0,N,제주특별자치도 제주시 추자면 추자로 26,,제주특별자치도,1899-8852,33.96370145,126.2960688,2019-06-30
"추자면사무소",주차장,제주특별자치도,연중무휴,00:00,23:59,N,Y,AC3상+DC차데모 +DC콤보,0,1,N,제주특별자치도 제주시 추자면 추자로 26,,환경부(한국자동차환경협회),1661-9408,33.96370145,126.2960688,2019-06-30
"제주서부하수처리장",주차장,제주특별자치도,연중무휴,00:00,23:59,Y,N,,1,0,N,제주특별자치도 제주시 한경면 판포리 1608,제주특별자치도 제주시 한경면 판포리 1608,제주특별자치도,1899-8852,33.370031,126.2062628,2019-06-30
"한경면사무소",주차장,제주특별자치도,연중무휴,00:00,23:59,Y,Y,AC3상+DC차데모 +DC콤보,2,1,N,제주특별자치도 제주시 한경면 두신로 84(신창리),,제주특별자치도,1899-8852,33.35011034,126.1841057,2019-06-30
"서부농업기술센터",주차장,제주특별자치도,연중무휴,00:00,23:59,Y,N,,2,0,N,제주특별자치도 제주시 한림읍 월림7길 90,,제주특별자치도,1899-8852,33.353628,126.2483963,2019-06-30
"서부농업기술센터",주차장,제주특별자치도,연중무휴,00:00,23:59,N,Y,AC3상+DC차데모 +DC콤보,0,2,N,제주특별자치도 제주시 한림읍 월림7길 90,,한국전력,1899-2100,33.353628,126.2483963,2019-06-30
"서부보건소",주차장,제주특별자치도,연중무휴,00:00,23:59,Y,N,,8,0,N,제주특별자치도 제주시 한림읍 강구로 5,,제주특별자치도,1899-8852,33.4123118,126.2696764,2019-06-30
"서부소방서",주차장,제주특별자치도,연중무휴,00:00,23:59,Y,N,,3,0,N,제주특별자치도 제주시 한림읍 한림중앙로 150,,제주특별자치도,1899-8852,33.4024456,126.270402,2019-06-30
"서부소방서",주차장,제주특별자치도,연중무휴,00:00,23:59,N,Y,AC3상+DC차데모 +DC콤보,0,2,N,제주특별자치도 제주시 한림읍 한림중앙로 150,,한국전력,1899-2100,33.4024456,126.270402,2019-06-30
"한림읍사무소",주차장,제주특별자치도,연중무휴,00:00,23:59,Y,N,,1,0,N,제주특별자치도 제주시 한림읍 한림상로 132,,제주특별자치도,1899-8852,33.410104,126.2670984,2019-06-30
"한림읍사무소",주차장,제주특별자치도,연중무휴,00:00,23:59,N,Y,AC3상+DC차데모 +DC콤보,0,1,N,제주특별자치도 제주시 한림읍 한림상로 132,,환경부(한국자동차환경협회),1661-9408,33.410104,126.2670984,2019-06-30
"한림체육관",주차장,제주특별자치도,연중무휴,00:00,23:59,Y,N,,1,0,N,제주특별자치도 제주시 한림읍 한림중앙로 71-9,,제주특별자치도,1899-8852,33.4089702,126.2684786,2019-06-30
"한림체육관",주차장,제주특별자치도,연중무휴,00:00,23:59,N,Y,AC3상+DC차데모 +DC콤보,0,3,N,제주특별자치도 제주시 한림읍 한림중앙로 71-9,,환경부(한국자동차환경협회),1661-9408,33.4089702,126.2684786,2019-06-30
"한림체육관",주차장,제주특별자치도,연중무휴,00:00,23:59,N,Y,AC3상+DC차데모 +DC콤보,0,2,N,제주특별자치도 제주시 한림읍 한림중앙로 71-9,,한국전력,1899-2100,33.4089702,126.2684786,2019-06-30
"국립제주박물관",주차장,제주특별자치도,연중무휴,00:00,23:59,N,Y,AC3상+DC차데모 +DC콤보,0,2,N,제주특별자치도 제주시 일주동로 17(건입동),,한국전력,1899-2100,33.5139974,126.5489702,2019-06-30
"제주소방서 항만119센터",주차장,제주특별자치도,연중무휴,00:00,23:59,N,Y,AC3상+DC차데모,0,1,N,제주특별자치도 제주시 임항로 146(건입동),,환경부(한국자동차환경협회),1661-9408,33.5201279,126.5393656,2019-06-30
"제주해양경비안전서",주차장,제주특별자치도,연중무휴,00:00,23:59,N,Y,AC3상+DC차데모 +DC콤보,0,2,N,제주특별자치도 제주시 임항로 154(건입동),,한국전력,1899-2100,33.519783,126.5403164,2019-06-30
"구좌체육관",주차장,제주특별자치도,연중무휴,00:00,23:59,N,Y,AC3상+DC차데모 +DC콤보,0,1,N,제주특별자치도 제주시 구좌읍 김녕로 209,,환경부(한국자동차환경협회),1661-9408,33.5561992,126.7616506,2019-06-30
"만장굴",주차장,제주특별자치도,연중무휴,00:00,23:59,N,Y,AC3상+DC차데모 +DC콤보,0,1,N,제주특별자치도 제주시 구좌읍 만장굴길 182,,환경부(한국자동차환경협회),1661-9408,33.5291000,126.7714308,2019-06-30
"비자림",주차장,제주특별자치도,연중무휴,00:00,23:59,N,Y,AC3상+DC차데모,0,1,N,제주특별자치도 제주시 구좌읍 비자숲길 55,,환경부(한국자동차환경협회),1661-9408,33.4913168,126.8113883,2019-06-30
"세화오일장인근주차장",주차장,제주특별자치도,연중무휴,00:00,23:59,N,Y,AC3상+DC차데모 +DC콤보,0,1,N,제주특별자치도 제주시 구좌읍 세화리 1500-41,제주특별자치도 제주시 구좌읍 세화리 1500-41,환경부(한국자동차환경협회),1661-9408,33.4895966,126.8316644,2019-06-30
"용암해수산업화지원센터",주차장,제주특별자치도,연중무휴,00:00,23:59,N,Y,AC3상+DC차데모 +DC콤보,0,1,N,제주특별자치도 제주시 구좌읍 일주동로 2706-40,,환경부(한국자동차환경협회),1661-9408,33.5425855,126.8121733,2019-06-30
"해녀박물관",주차장,제주특별자치도,연중무휴,00:00,23:59,N,Y,AC3상+DC차데모 +DC콤보,0,1,N,제주특별자치도 제주시 구좌읍 일주동로 2706-40,,환경부(한국자동차환경협회),1661-9408,33.5425855,126.8121733,2019-06-30
"환경성질환예방관리센터",주차장,제주특별자치도,연중무휴,00:00,23:59,N,Y,AC3상+DC차데모 +DC콤보,0,1,N,제주특별자치도 제주시 구좌읍 다랑쉬북로 68-92,,환경부(한국자동차환경협회),1661-9408,33.48558365,126.8104242,2019-06-30
"어리목주차장",주차장,제주특별자치도,연중무휴,00:00,23:59,N,Y,AC3상+DC차데모,0,1,N,제주특별자치도 제주시 1100로 2070-61(해안동),,환경부(한국자동차환경협회),1661-9408,33.3922314,126.4945663,2019-06-30
"어리목주차장",주차장,제주특별자치도,연중무휴,00:00,23:59,N,Y,AC3상+DC차데모 +DC콤보,0,2,N,제주특별자치도 제주시 1100로 2070-61(해안동),,한국전력,1899-2100,33.3922314,126.4945663,2019-06-30
"해군호텔",주차장,제주특별자치도,연중무휴,00:00,23:59,N,Y,AC3상+DC차데모 +DC콤보,0,1,N,제주특별자치도 제주시 해안마을서2길 19,,환경부(한국자동차환경협회),1661-9408,33.4590325,126.448717,2019-06-30
"롯데마트신제주점",주차장,제주특별자치도,연중무휴,00:00,23:59,N,Y,AC3상+DC차데모 +DC콤보,0,1,N,제주특별자치도 제주시 노형동 708,제주특별자치도 제주시 노형동 708,환경부(한국자동차환경협회),1661-9408,33.4824201,126.4819325,2019-06-30
"오일시장일대공영주차장",주차장,제주특별자치도,연중무휴,00:00,23:59,N,Y,AC3상+DC차데모 +DC콤보,0,1,N,제주특별자치도 제주시 오일장서길 26(도두일동),,환경부(한국자동차환경협회),1661-9408,33.4974552,126.4747907,2019-06-30
"노루생태공원",주차장,제주특별자치도,연중무휴,00:00,23:59,N,Y,AC3상+DC차데모 +DC콤보,0,1,N,제주특별자치도 제주시 명림로 520(봉개동),,환경부(한국자동차환경협회),1661-9408,33.4444421,126.6266442,2019-06-30
"관음사휴게소",주차장,제주특별자치도,연중무휴,00:00,23:59,N,Y,AC3상+DC차데모,0,1,N,제주특별자치도 제주시 산록북로 588(오등동),,환경부(한국자동차환경협회),1661-9408,33.4218993,126.5503226,2019-06-30
"관음사휴게소",주차장,제주특별자치도,연중무휴,00:00,23:59,N,Y,AC3상+DC차데모 +DC콤보,0,1,N,제주특별자치도 제주시 산록북로 588(오등동),,한국전력,1899-2100,33.4218993,126.5503226,2019-06-30
"별빛누리공원",주차장,제주특별자치도,연중무휴,00:00,23:59,N,Y,AC3상+DC차데모 +DC콤보,0,1,N,제주특별자치도 제주시 선돌목동길 60(오등동),,환경부(한국자동차환경협회),1661-9408,33.4450231,126.5492487,2019-06-30
"아라지구공영주차장",주차장,제주특별자치도,연중무휴,00:00,23:59,N,Y,AC3상+DC차데모 +DC콤보,0,1,N,제주특별자치도 제주시 아라동 6140-4,제주특별자치도 제주시 아라동 6140-4(염광아파트옆),환경부(한국자동차환경협회),1661-9408,33.4703785,126.5476976,2019-06-30
"제주테크노파크방송통신융합센터",주차장,제주특별자치도,연중무휴,00:00,23:59,N,Y,AC3상+DC차데모 +DC콤보,0,1,N,제주특별자치도 제주시 첨단로 241(영평동),,환경부(한국자동차환경협회),1661-9408,33.451093,126.572006,2019-06-30
"탐라중학교공영주차장",주차장,제주특별자치도,연중무휴,00:00,23:59,N,Y,AC3상+DC차데모 +DC콤보,0,1,N,제주특별자치도 제주시 아라동 3008-1,제주특별자치도 제주시 아라동 3008-1,환경부(한국자동차환경협회),1661-9408,33.4763498,126.5450031,2019-06-30
"한국폴리텍대학 제주캠퍼스",주차장,제주특별자치도,연중무휴,00:00,23:59,N,Y,AC3상+DC차데모 +DC콤보,0,1,N,제주특별자치도 제주시 산천단동3길 2(아라일동),,환경부(한국자동차환경협회),1661-9408,33.4478624,126.5612608,2019-06-30
"한라생태숲",주차장,제주특별자치도,연중무휴,00:00,23:59,N,Y,AC3상+DC차데모 +DC콤보,0,1,N,제주특별자치도 제주시 516로2596(용강동),,환경부(한국자동차환경협회),1661-9408,33.430924,126.595761,2019-06-30
"녹고뫼 안트레안내센터",주차장,제주특별자치도,연중무휴,00:00,23:59,N,Y,AC3상+DC차데모 +DC콤보,0,1,N,제주특별자치도 제주시 애월읍 유수암리 1178-1,제주특별자치도 제주시 애월읍 유수암리 1178-1,환경부(한국자동차환경협회),1661-9408,33.4059516764,126.40796934,2019-06-30
"봉성리 종합복지회관",주차장,제주특별자치도,연중무휴,00:00,23:59,N,Y,AC3상+DC차데모 +DC콤보,0,1,N,제주특별자치도 제주시 애월읍 봉성로 105,,환경부(한국자동차환경협회),1661-9408,33.4221038,126.3124995,2019-06-30
"상가리사무소",주차장,제주특별자치도,연중무휴,00:00,23:59,N,Y,AC3상+DC차데모 +DC콤보,0,1,N,제주특별자치도 제주시 애월읍 상가중길 23,,환경부(한국자동차환경협회),1661-9408,33.4496848,126.3457585,2019-06-30
"애월도서관",주차장,제주특별자치도,연중무휴,00:00,23:59,N,Y,AC3상+DC차데모 +DC콤보,0,1,N,제주특별자치도 제주시 애월읍 일주서로 6339,,환경부(한국자동차환경협회),1661-9408,33.4633212,126.3314033,2019-06-30
"하귀1지구 공영주차장",주차장,제주특별자치도,연중무휴,00:00,23:59,N,Y,AC3상+DC차데모 +DC콤보,0,1,N,제주특별자치도 제주시 애월읍 하귀1리 176-3,제주특별자치도 제주시 애월읍 하귀1리 176-3,환경부(한국자동차환경협회),1661-9408,33.4845878,126.4177465,2019-06-30
"클럽다인리조트",주차장,제주특별자치도,연중무휴,00:00,23:59,N,Y,AC3상+DC차데모 +DC콤보,0,1,N,제주특별자치도 제주시 애월읍 애월해안로 400-9,,환경부(한국자동차환경협회),1661-9408,33.4710066,126.3514646,2019-06-30
"시리우스호텔",주차장,제주특별자치도,연중무휴,00:00,23:59,N,Y,AC3상+DC차데모 +DC콤보,0,1,N,제주특별자치도 제주시 연동 2334-4,제주특별자치도 제주시 연동 2334-4,환경부(한국자동차환경협회),1661-9408,33.4934468418,126.4909571,2019-06-30
"한라도서관",주차장,제주특별자치도,연중무휴,00:00,23:59,N,Y,AC3상+DC차데모 +DC콤보,0,1,N,제주특별자치도 제주시 오남로 221(오라이동),,환경부(한국자동차환경협회),1661-9408,33.4763664,126.516046,2019-06-30
"외도구획정리지구",주차장,제주특별자치도,연중무휴,00:00,23:59,N,Y,AC3상+DC차데모 +DC콤보,0,1,N,제주특별자치도 제주시 외도1동 482-1,제주특별자치도 제주시 외도1동 482-1,환경부(한국자동차환경협회),1661-9408,33.4899087,126.432638,2019-06-30
"외도부영2차아파트",주차장,제주특별자치도,연중무휴,00:00,23:59,N,Y,AC3상+DC차데모 +DC콤보,0,1,N,제주특별자치도 제주시 우평로 318(외도일동),,환경부(한국자동차환경협회),1661-9408,33.48498216,126.433522,2019-06-30
"제주국제공항",건물주차장1F,제주특별자치도,연중무휴,00:00,23:59,N,Y,AC3상+DC차데모 +DC콤보,0,1,Y,제주특별자치도 제주시 공항로 2(용담2동),,환경부(한국자동차환경협회),1661-9408,33.5063344,126.4952613,2019-06-30
"제주국제공항",야외주차장,제주특별자치도,연중무휴,00:00,23:59,Y,Y,AC3상+DC차데모 +DC콤보,6,9,Y,제주특별자치도 제주시 공항로 2(용담2동),,한국전력,1899-2100,33.5063344,126.4952613,2019-06-30
"삼성혈 인근 공영주차장",주차장,제주특별자치도,연중무휴,00:00,23:59,N,Y,AC3상+DC차데모 +DC콤보,0,1,N,제주특별자치도 제주시 이도1동 1293-1,제주특별자치도 제주시 이도1동 1293-1,환경부(한국자동차환경협회),1661-9408,33.5046445,126.5303835,2019-06-30
"도남e편한세상아파트1차",주차장,제주특별자치도,연중무휴,00:00,23:59,N,Y,AC3상+DC차데모 +DC콤보,0,2,N,제주특별자치도 제주시 오남로 7-13,,환경부(한국자동차환경협회),1661-9408,33.4949748,126.5226164,2019-06-30
"제주상공회의소 뒤 공영주차장",주차장,제주특별자치도,연중무휴,00:00,23:59,N,Y,AC3상+DC차데모 +DC콤보,0,1,N,제주특별자치도 제주시 도남동 574-3,제주특별자치도 제주시 도남동 574-3,환경부(한국자동차환경협회),1661-9408,33.4904195,126.5201501,2019-06-30
"신천지아파트",주차장,제주특별자치도,연중무휴,00:00,23:59,N,Y,AC3상+DC차데모 +DC콤보,0,1,N,제주특별자치도 제주시 천수로 72(일도이동),,환경부(한국자동차환경협회),1661-9408,33.50447886,126.5447864,2019-06-30
"영락교회 인근 공영주차장",주차장,제주특별자치도,연중무휴,00:00,23:59,Y,Y,AC3상+DC차데모 +DC콤보,1,2,N,제주특별자치도 제주시 일도2동 488-1,제주특별자치도 제주시 일도2동 488-1,환경부(한국자동차환경협회),1661-9408,33.5106341,126.5442435,2019-06-30
"거문오름 주차장",주차장,제주특별자치도,연중무휴,00:00,23:59,N,Y,AC3상+DC차데모,0,1,N,제주특별자치도 제주시 조천읍 선교로 569-36,,환경부(한국자동차환경협회),1661-9408,33.4569205,126.7147513,2019-06-30
"교래자연휴양림",주차장,제주특별자치도,연중무휴,00:00,23:59,N,Y,AC3상+DC차데모 +DC콤보,0,1,N,제주특별자치도 제주시 조천읍 남조로 2023,,환경부(한국자동차환경협회),1661-9408,33.4486627,126.6589493,2019-06-30
"람사르습지 주차장",주차장,제주특별자치도,연중무휴,00:00,23:59,N,Y,AC3상+DC차데모,0,1,N,제주특별자치도 제주시 조천읍 동백로 77,,환경부(한국자동차환경협회),1661-9408,33.50969881,126.7156674,2019-06-30
"산굼부리",주차장,제주특별자치도,연중무휴,00:00,23:59,N,Y,AC3상+DC차데모,0,1,N,제주특별자치도 제주시 조천읍 교래리 산38-2,제주특별자치도 제주시 조천읍 교래리 산38-2,환경부(한국자동차환경협회),1661-9408,33.4087482,126.635052,2019-06-30
"성판악휴게소",주차장,제주특별자치도,연중무휴,00:00,23:59,N,Y,AC3상+DC차데모 +DC콤보,0,1,N,제주특별자치도 제주시 조천읍 교래리 산137-2,제주특별자치도 제주시 조천읍 교래리 산137-2,환경부(한국자동차환경협회),1661-9408,33.4087482,126.635052,2019-06-30
"행운식품",주차장,제주특별자치도,연중무휴,00:00,23:59,N,Y,AC3상+DC차데모 +DC콤보,0,1,N,제주특별자치도 제주시 조천읍 함덕리 906번지,조천읍 함덕리 906번지,환경부(한국자동차환경협회),1661-9408,33.5368718,126.6699363,2019-06-30
"제주현대미술관",주차장,제주특별자치도,연중무휴,00:00,23:59,N,Y,AC3상+DC차데모 +DC콤보,0,2,N,제주특별자치도 제주시 한경면 저지14길 35,,환경부(한국자동차환경협회),1661-9408,33.33969225,126.2656922,2019-06-30
"한경도서관 앞 주차장",주차장,제주특별자치도,연중무휴,00:00,23:59,N,Y,AC3상+DC차데모 +DC콤보,0,1,N,제주특별자치도 제주시 한경면 신창리 233-1,제주특별자치도 제주시 한경면 신창리 233-1,환경부(한국자동차환경협회),1661-9408,33.3498289,126.1845735,2019-06-30
"한경체육관",주차장,제주특별자치도,연중무휴,00:00,23:59,N,Y,AC3상+DC차데모,0,1,N,제주특별자치도 제주시 한경면 칠전로 41,,환경부(한국자동차환경협회),1661-9408,33.3014102,126.1845554,2019-06-30
"한림공원 인근 공영주차장",주차장,제주특별자치도,연중무휴,00:00,23:59,N,Y,AC3상+DC차데모 +DC콤보,0,2,N,제주특별자치도 제주시 한림읍 금능리 2018,,환경부(한국자동차환경협회),1661-9408,33.3910691,126.2372035,2019-06-30
"(재)테크노파크 생물종다양성연구소",주차장,제주특별자치도,연중무휴,00:00,23:59,N,Y,AC3상+DC차데모 +DC콤보,0,1,N,제주특별자치도 서귀포시 남원읍 신례동로 338,,환경부(한국자동차환경협회),1661-9408,33.31464154,126.634748,2019-06-30
"(재)테크노파크 생물종다양성연구소",주차장,제주특별자치도,연중무휴,00:00,23:59,N,Y,AC3상+DC차데모 +DC콤보,0,4,N,제주특별자치도 서귀포시 남원읍 신례동로 338,,제주테크노파크,,33.31464154,126.634748,2019-06-30
"남원읍 공영주차장",주차장,제주특별자치도,연중무휴,00:00,23:59,N,Y,AC3상+DC차데모 +DC콤보,0,1,N,제주특별자치도 서귀포시 남원읍 남원리 84-2,제주특별자치도 서귀포시 남원읍 남원리 84-2,환경부(한국자동차환경협회),1661-9408,33.2788184,126.7214486,2019-06-30
"위미의례회관",주차장,제주특별자치도,연중무휴,00:00,23:59,N,Y,AC3상+DC차데모 +DC콤보,0,1,N,제주특별자치도 서귀포시 남원읍 중산간동로 6862,,환경부(한국자동차환경협회),1661-9408,33.2897921,126.657825,2019-06-30
"월드컵경기장 인근 공영주차장",주차장,제주특별자치도,연중무휴,00:00,23:59,N,Y,AC3상+DC차데모 +DC콤보,0,2,N,제주특별자치도 서귀포시 법환동 870,,환경부(한국자동차환경협회),1661-9408,33.2481172,126.5110332,2019-06-30
"서귀포혁신도시공영주차장(국토교통부인재개발원 앞)",주차장,제주특별자치도,연중무휴,00:00,23:59,N,Y,AC3상+DC차데모 +DC콤보,0,1,N,제주특별자치도 서귀포시 서호동 1603,제주특별자치도 서귀포시 서호동 1603,환경부(한국자동차환경협회),1661-9408,33.2784399,126.5169922,2019-06-30
"대정감협 인근 공영주차장",주차장,제주특별자치도,연중무휴,00:00,23:59,N,Y,AC3상+DC차데모 +DC콤보,0,1,N,제주특별자치도 서귀포시 대정읍 하모리 964-2,제주특별자치도 서귀포시 대정읍 하모리 964-2,환경부(한국자동차환경협회),1661-9408,33.2230292,126.2520661,2019-06-30
"제주 곶자왈 도립공원입구",주차장,제주특별자치도,연중무휴,00:00,23:59,N,Y,AC3상+DC차데모 +DC콤보,0,1,N,제주특별자치도 서귀포시 대정읍 에듀시티로 178,,환경부(한국자동차환경협회),1661-9408,33.28322252,126.2735723,2019-06-30
"대정문화체육센터",주차장,제주특별자치도,연중무휴,00:00,23:59,N,Y,AC3상+DC차데모 +DC콤보,0,3,N,제주특별자치도 서귀포시 대정읍 동일리 3171,제주특별자치도 서귀포시 대정읍 동일리 3171,환경부(한국자동차환경협회),1661-9408,33.2633536,126.2351338,2019-06-30
"서귀포시민회관",주차장,제주특별자치도,연중무휴,00:00,23:59,N,Y,AC3상+DC차데모 +DC콤보,0,1,N,제주특별자치도 서귀포시 동홍로 31-7(동홍동),,환경부(한국자동차환경협회),1661-9408,33.25169148,126.5667351,2019-06-30
"서귀포 자기주도학습지원센터",주차장,제주특별자치도,연중무휴,00:00,23:59,N,Y,AC3상+DC차데모 +DC콤보,0,1,N,제주특별자치도 서귀포시 동홍중앙로7번길 19,,환경부(한국자동차환경협회),1661-9408,33.25129639,126.5703212,2019-06-30
"퐁낭작은도서관 앞 공영주차장(비석거리)",주차장,제주특별자치도,연중무휴,00:00,23:59,N,Y,AC3상+DC차데모 +DC콤보,0,1,N,제주특별자치도 서귀포시 동홍중앙로 56(동홍동),,환경부(한국자동차환경협회),1661-9408,33.25544697,126.5722626,2019-06-30
"서귀포성당 뒤 주차장(솔동산로근처)",주차장,제주특별자치도,연중무휴,00:00,23:59,N,Y,AC3상+DC차데모 +DC콤보,0,1,N,제주특별자치도 서귀포시 서귀동 600-3,제주특별자치도 서귀포시 서귀동 600-3,환경부(한국자동차환경협회),1661-9408,33.2436583,126.5629579,2019-06-30
"서귀포시 매일시장 공영주차장",주차장,제주특별자치도,연중무휴,00:00,23:59,N,Y,AC3상+DC차데모 +DC콤보,0,2,N,제주특별자치도 서귀포시 중앙로62번길 18(서귀동),,환경부(한국자동차환경협회),1661-9408,33.2501708,126.5636786,2019-06-30
"아랑조을거리 공영주차장",주차장,제주특별자치도,연중무휴,00:00,23:59,N,Y,AC3상+DC차데모 +DC콤보,0,1,N,제주특별자치도 서귀포시 서귀동 312-6,제주특별자치도 서귀포시 서귀동 312-6,환경부(한국자동차환경협회),1661-9408,33.2477823,126.5603076,2019-06-30
"모구리야영장",주차장,제주특별자치도,연중무휴,00:00,23:59,N,Y,AC3상+DC차데모 +DC콤보,0,1,N,제주특별자치도 서귀포시 성산읍 서성일로 260,,환경부(한국자동차환경협회),1661-9408,33.4059591,126.821694,2019-06-30
"성산읍 공영주차장",주차장,제주특별자치도,연중무휴,00:00,23:59,N,Y,AC3상+DC차데모 +DC콤보,0,1,N,제주특별자치도 서귀포시 성산읍 고성리 327-1,제주특별자치도 서귀포시 성산읍 고성리 327-1,환경부(한국자동차환경협회),1661-9408,33.4242095,126.931111,2019-06-30
"성산일출봉 공영주차장",주차장,제주특별자치도,연중무휴,00:00,23:59,Y,Y,AC3상+DC차데모 +DC콤보,1,3,N,제주특별자치도 서귀포시 성산읍 일출로 284-6,,환경부(한국자동차환경협회),1661-9408,33.4624691,126.9352237,2019-06-30
"일출랜드",주차장,제주특별자치도,연중무휴,09:00,18:00,N,Y,AC3상+DC차데모 +DC콤보,0,3,N,제주특별자치도 서귀포시 성산읍 중산간동로 4150-30,,환경부(한국자동차환경협회),1661-9408,33.3835243,126.8413634,2019-06-30
"봄그리고가을리조트",주차장,제주특별자치도,연중무휴,00:00,23:59,N,Y,AC3상+DC차데모 +DC콤보,0,1,N,제주특별자치도 서귀포시 성산읍 해맞이해안로 2660,,환경부(한국자동차환경협회),1661-9408,33.474087,126.9110984,2019-06-30
"성산포 공영주차장(야외)",주차장,제주특별자치도,연중무휴,00:00,23:59,N,Y,AC3상+DC차데모 +DC콤보,0,6,N,제주특별자치도 서귀포시 성산읍 성산리 347-9,제주특별자치도 서귀포시 성산읍 성산리 347-9,환경부(한국자동차환경협회),1661-9408,33.4719123953,126.9331983,2019-06-30
"보목하수처리장",주차장,제주특별자치도,연중무휴,00:00,23:59,N,Y,AC3상+DC차데모 +DC콤보,0,1,N,제주특별자치도 서귀포시 보목로64번길 155(보목동),,환경부(한국자동차환경협회),1661-9408,33.243313,126.5914917,2019-06-30
"산방산 주차장",주차장,제주특별자치도,연중무휴,00:00,23:59,N,Y,AC3상+DC차데모,0,1,N,제주특별자치도 서귀포시 안덕면 사계리 163-1,제주특별자치도 서귀포시 안덕면 사계리 163-1,환경부(한국자동차환경협회),1661-9408,33.2359439,126.3119793,2019-06-30
"안덕우체국 뒤 주차장",주차장,제주특별자치도,연중무휴,00:00,23:59,N,Y,AC3상+DC차데모 +DC콤보,0,1,N,제주특별자치도 서귀포시 안덕면 화순리 1072,제주특별자치도 서귀포시 안덕면 화순리 1072,환경부(한국자동차환경협회),1661-9408,33.2462682,126.3353527,2019-06-30
"돈내코유원지 주차장",주차장,제주특별자치도,연중무휴,00:00,23:59,N,Y,AC3상+DC차데모 +DC콤보,0,1,N,제주특별자치도 서귀포시 돈내코로 114,,환경부(한국자동차환경협회),1661-9408,33.3003161,126.5847998,2019-06-30
"중문랜드",주차장,제주특별자치도,연중무휴,00:00,23:59,N,Y,AC3상+DC차데모 +DC콤보,0,1,N,제주특별자치도 서귀포시 소보리당로164번길 62(상예동),,환경부(한국자동차환경협회),1661-9408,33.2639753,126.3852041,2019-06-30
"중문관광단지",색달해변 북측주차장,제주특별자치도,연중무휴,00:00,23:59,N,Y,AC3상+DC차데모 +DC콤보,0,5,N,제주특별자치도 서귀포시 색달동 2889-1,제주특별자치도 서귀포시 색달동 2889-1,환경부(한국자동차환경협회),1661-9408,33.2814107,126.4111118,2019-06-30
"중문컨벤션센터",주차장,제주특별자치도,연중무휴,00:00,23:59,N,Y,AC3상+DC차데모 +DC콤보,0,2,N,제주특별자치도 서귀포시 중문관광로 224(중문동),,환경부(한국자동차환경협회),1661-9408,33.2413649,126.4245153,2019-06-30
"회수사거리",주차장,제주특별자치도,연중무휴,00:00,23:59,N,Y,AC3상+DC차데모 +DC콤보,0,1,N,제주특별자치도 서귀포시 회수동 788-2,제주특별자치도 서귀포시 회수동 788-2,환경부(한국자동차환경협회),1661-9408,33.2630754,126.4425071,2019-06-30
"성읍민속마을",주차장,제주특별자치도,연중무휴,00:00,23:59,N,Y,AC3상+DC차데모,0,1,N,제주특별자치도 서귀포시 표선면 성읍리 855-3,제주특별자치도 서귀포시 표선면 성읍리 855-3,환경부(한국자동차환경협회),1661-9408,33.3841426,126.8018149,2019-06-30
"표선생활체육관",주차장,제주특별자치도,연중무휴,00:00,23:59,N,Y,AC3상+DC차데모 +DC콤보,0,1,N,제주특별자치도 서귀포시 표선면 한마음초등로 399,,환경부(한국자동차환경협회),1661-9408,33.3544886,126.8146643,2019-06-30
"표선의례회관 앞 공영주차장",주차장,제주특별자치도,연중무휴,00:00,23:59,N,Y,AC3상+DC차데모 +DC콤보,0,1,N,제주특별자치도 서귀포시 표선면 표선리 2103,제주특별자치도 서귀포시 표선면 표선리 2103,환경부(한국자동차환경협회),1661-9408,33.3225332,126.8228665,2019-06-30
"표선해수욕장 주차장",주차장,제주특별자치도,연중무휴,00:00,23:59,N,Y,AC3상+DC차데모 +DC콤보,0,5,N,제주특별자치도 서귀포시 표선면 민속해안로 631-45,,환경부(한국자동차환경협회),1661-9408,33.322511,126.841868,2019-06-30
"쇠소깍 공영주차장",주차장,제주특별자치도,연중무휴,00:00,23:59,N,Y,AC3상+DC차데모 +DC콤보,0,1,N,제주특별자치도 서귀포시 쇠소깍로 104,,환경부(한국자동차환경협회),1661-9408,33.2542498,126.6224923,2019-06-30
"봉개동공영주차장",주차장,제주특별자치도,연중무휴,00:00,23:59,N,Y,AC3상+DC차데모 +DC콤보,0,1,N,제주특별자치도 제주시 봉개동 1854-1,제주특별자치도 제주시 봉개동 1854-1,환경부(한국자동차환경협회),1661-9408,33.4914049,126.5949431,2019-06-30
"북촌 너븐숭이4.3 기념관",주차장,제주특별자치도,연중무휴,00:00,23:59,N,Y,AC3상+DC차데모 +DC콤보,0,1,N,제주특별자치도 제주시 조천읍 북촌3길 3,,환경부(한국자동차환경협회),1661-9408,33.5459875,126.6887641,2019-06-30
"사려니숲길 주차장",주차장,제주특별자치도,연중무휴,00:00,23:59,N,Y,AC3상+DC차데모 +DC콤보,0,3,N,제주특별자치도 제주시 봉개동 2750-2,제주특별자치도 제주시 봉개동 2750-2,환경부(한국자동차환경협회),1661-9408,33.4394527,126.6294642,2019-06-30
"선흘리 낙선동4.3성",주차장,제주특별자치도,연중무휴,00:00,23:59,N,Y,DC콤보,0,2,N,제주특별자치도 제주시 조천읍 선흘서5길7,,환경부(한국자동차환경협회),1661-9408,33.5153475,126.6945308,2019-06-30
"제스코마트",주차장,제주특별자치도,연중무휴,00:00,23:59,N,Y,AC3상+DC차데모 +DC콤보,0,3,N,제주특별자치도 제주시 연북로 444,,환경부(한국자동차환경협회),1661-9408,33.4804626,126.5292406,2019-06-30
"한국교통안전공단 제주자동차검사소",주차장,제주특별자치도,연중무휴,00:00,23:59,N,Y,AC3상+DC차데모 +DC콤보,0,2,N,제주특별자치도 제주시 삼봉로 79,,환경부(한국자동차환경협회),1661-9408,33.5141378,126.5892937,2019-06-30
"메밀가공시설",주차장,제주특별자치도,연중무휴,00:00,23:59,N,Y,DC콤보,0,2,N,제주특별자치도 서귀포시 안덕면 광평리 211,제주특별자치도 서귀포시 안덕면 광평리 211,환경부(한국자동차환경협회),1661-9408,33.3280672,126.379672,2019-06-30
"도립미술관",주차장,제주특별자치도,연중무휴,00:00,23:59,N,Y,DC콤보,0,2,N,제주특별자치도 제주시 1100로 2894-78,,환경부(한국자동차환경협회),1661-9408,33.4526324,126.4896073,2019-06-30
"신화역사공원 조성사업",주차장,제주특별자치도,연중무휴,00:00,23:59,N,Y,DC콤보,0,4,N,제주특별자치도 서귀포시 안덕면 서광리 2608,제주특별자치도 서귀포시 안덕면 서광리(가)2608,환경부(한국자동차환경협회),1661-9408,33.2991069,126.3108907,2019-06-30
"하효마을다목적회관",주차장,제주특별자치도,연중무휴,00:00,23:59,N,Y,DC콤보,0,2,N,제주특별자치도 서귀포시 칠십리로 740(하효동),,환경부(한국자동차환경협회),1661-9408,33.2581464,126.617765,2019-06-30
"홍로공영주차장",주차장,제주특별자치도,연중무휴,00:00,23:59,N,Y,AC3상+DC차데모 +DC콤보,0,3,N,제주특별자치도 서귀포시 동홍동 1480-6,제주특별자치도 서귀포시 동홍동 1480-6,환경부(한국자동차환경협회),1661-9408,33.2663197,126.5671727,2019-06-30
"송당리사무소",주차장,제주특별자치도,연중무휴,00:00,23:59,N,Y,AC3상+DC차데모 +DC콤보,0,1,N,제주특별자치도 제주시 구좌읍 중산간동로 2210,,한국전력,1899-2100,33.4713595,126.779182,2019-06-30
"스마트그리드홍보관",주차장,제주특별자치도,연중무휴,00:00,23:59,N,Y,AC3상+DC차데모 +DC콤보,0,4,N,제주특별자치도 제주시 구좌읍 행원로13길 122,,한국전력,1899-2100,33.5568204,126.8135728,2019-06-30
"개인택시조합",주차장,제주특별자치도,연중무휴,00:00,23:59,N,Y,AC3상+DC차데모 +DC콤보,0,2,N,제주특별자치도 제주시 도공로 147(도두일동),,한국전력,1899-2100,33.4957048,126.4691969,2019-06-30
LH제주지역본부,주차장,제주특별자치도,연중무휴,00:00,23:59,Y,Y,AC3상+DC차데모 +DC콤보,1,1,N,제주특별자치도 제주시 전농로 100(삼도일동),,한국전력,1899-2100,33.5040866,126.5237993,2019-06-30
"제주삼양유적지",주차장,제주특별자치도,연중무휴,00:00,23:59,N,Y,AC3상+DC차데모 +DC콤보,0,2,N,제주특별자치도 제주시 선사로2길 13(삼양일동),,한국전력,1899-2100,33.5236295,126.5881816,2019-06-30
"삼양2동공영주차장",주차장,제주특별자치도,연중무휴,00:00,23:59,N,Y,AC3상+DC차데모 +DC콤보,0,1,N,제주특별자치도 제주시 삼양2동 2176-13,제주특별자치도 제주시 삼양2동 2176-13,한국전력,1899-2100,33.5197151,126.582675,2019-06-30
"제주의료원",주차장,제주특별자치도,연중무휴,00:00,23:59,N,Y,AC3상+DC차데모 +DC콤보,0,2,N,제주특별자치도 제주시 산천단남길 10(아라일동),,한국전력,1899-2100,33.4452709,126.5601453,2019-06-30
"서부경찰서",주차장,제주특별자치도,연중무휴,00:00,23:59,N,Y,AC3상+DC차데모 +DC콤보,0,2,N,제주특별자치도 제주시 애월읍 애조로 215,,한국전력,1899-2100,33.4735853,126.4062819,2019-06-30
"파스쿠찌유수암점",주차장,제주특별자치도,연중무휴,00:00,23:59,N,Y,AC3상+DC차데모 +DC콤보,0,1,N,제주특별자치도 제주시 애월읍 유수암평화길 242,,한국전력,1899-2100,33.42359058,126.4079787,2019-06-30
"제주 KCTV",주차장,제주특별자치도,연중무휴,00:00,23:59,N,Y,AC3상+DC차데모 +DC콤보,0,2,N,제주특별자치도 제주시 아연로 2(연동),,한국전력,1899-2100,33.4812035,126.4962404,2019-06-30
"한국전력공사 제주지역본부",주차장,제주특별자치도,연중무휴,00:00,23:59,N,Y,AC3상+DC차데모 +DC콤보,0,2,N,제주특별자치도 제주시 연동 322-2,제주특별자치도 제주시 연동 322-2,한국전력,1899-2100,33.4890305,126.5013451,2019-06-30
SK행복날개 주유소,주차장,제주특별자치도,연중무휴,00:00,23:59,N,Y,AC3상+DC차데모 +DC콤보,0,2,N,제주특별자치도 제주시 용문로 12(용담이동),,한국전력,1899-2100,33.5050106,126.4976141,2019-06-30
"부민장례식장",주차장,제주특별자치도,연중무휴,00:00,23:59,N,Y,AC3상+DC차데모 +DC콤보,0,2,N,제주특별자치도 제주시 연북로 378(도남동),,한국전력,1899-2100,33.4803205,126.5219174,2019-06-30
"베라체 공영주차장",주차장,제주특별자치도,연중무휴,00:00,23:59,N,Y,AC3상+DC차데모 +DC콤보,0,1,N,제주특별자치도 제주시 이도2동 1963-7,제주특별자치도 제주시 이도2동 1963-7,한국전력,1899-2100,33.4969863,126.5353375,2019-06-30
"베스트힐 주차장",주차장,제주특별자치도,연중무휴,00:00,23:59,N,Y,AC3상+DC차데모 +DC콤보,0,1,N,제주특별자치도 제주시 조천읍 남조로 2109-38,,한국전력,1899-2100,33.45400628,126.6576599,2019-06-30
"해양경비안전센터(고산출장소)",주차장,제주특별자치도,연중무휴,00:00,23:59,Y,Y,AC3상+DC차데모 +DC콤보,1,1,N,제주특별자치도 제주시 한경면 노을해안로 1145,,한국전력,1899-2100,33.3081601,126.164197,2019-06-30
"유리의성",주차장,제주특별자치도,연중무휴,00:00,23:59,N,Y,AC3상+DC차데모 +DC콤보,0,1,N,제주특별자치도 제주시 한경면 녹차분재로 462,,한국전력,1899-2100,33.3148365,126.2734488,2019-06-30
"한경119센터",주차장,제주특별자치도,연중무휴,00:00,23:59,N,Y,AC3상+DC차데모 +DC콤보,0,1,N,제주특별자치도 제주시 한경면 일주서로 4218,,한국전력,1899-2100,33.3426894,126.1829494,2019-06-30
"김창열미술관",주차장,제주특별자치도,연중무휴,00:00,23:59,N,Y,AC3상+DC차데모 +DC콤보,0,2,N,제주특별자치도 제주시 한림읍 용금로 883-5,,한국전력,1899-2100,33.3389037,126.2682351,2019-06-30
"제주대학교교육대학",주차장,제주특별자치도,연중무휴,00:00,23:59,N,Y,AC3상+DC차데모 +DC콤보,0,2,N,제주특별자치도 제주시 일주동로 61(화북일동),,한국전력,1899-2100,33.5145691,126.5516729,2019-06-30
"화북2동 공영주차장",주차장,제주특별자치도,연중무휴,00:00,23:59,N,Y,AC3상+DC차데모 +DC콤보,0,1,N,제주특별자치도 제주시 화북2동 3378-4,제주특별자치도 제주시 화북2동 3378-4.6,한국전력,1899-2100,33.5083458,126.5612841,2019-06-30
"남원의례회관 주차장",주차장,제주특별자치도,연중무휴,00:00,23:59,N,Y,AC3상+DC차데모 +DC콤보,0,2,N,제주특별자치도 서귀포시 남원읍 서의로 26,,한국전력,1899-2100,33.2948173,126.7114506,2019-06-30
"강창학경기장",주차장,제주특별자치도,연중무휴,00:00,23:59,N,Y,AC3상+DC차데모 +DC콤보,0,3,N,제주특별자치도 서귀포시 중산간서로 95(강정동),,한국전력,1899-2100,33.2596431,126.501791,2019-06-30
"서귀포 해양경비안전서",주차장,제주특별자치도,연중무휴,00:00,23:59,N,Y,AC3상+DC차데모 +DC콤보,0,2,N,제주특별자치도 서귀포시 서호남로 11(서호동),,한국전력,1899-2100,33.2512173,126.5137141,2019-06-30
"영어교육도시119센터",주차장,제주특별자치도,연중무휴,00:00,23:59,N,Y,AC3상+DC차데모 +DC콤보,0,2,N,제주특별자치도 서귀포시 대정읍 에듀시티로 238,,한국전력,1899-2100,33.27896208,126.2733586,2019-06-30
"정방폭포(주차장)",주차장,제주특별자치도,연중무휴,00:00,23:59,Y,Y,AC3상+DC차데모 +DC콤보,1,1,N,제주특별자치도 서귀포시 칠십리로214번길 37(동홍동),,한국전력,1899-2100,33.24474912,126.5730486,2019-06-30
"서귀포의료원",주차장,제주특별자치도,연중무휴,00:00,23:59,N,Y,AC3상+DC차데모 +DC콤보,0,1,N,제주특별자치도 서귀포시 장수로 47(동홍동),,한국전력,1899-2100,33.2560963,126.5630644,2019-06-30
"제주권역재활병원",주차장,제주특별자치도,연중무휴,00:00,23:59,N,Y,AC3상+DC차데모 +DC콤보,0,2,N,제주특별자치도 서귀포시 동문로 1(서귀동),,한국전력,1899-2100,33.25288112,126.5624668,2019-06-30
"난산리 다목적회관",주차장,제주특별자치도,연중무휴,00:00,23:59,Y,Y,AC3상+DC차데모 +DC콤보,1,1,N,제주특별자치도 서귀포시 성산읍 난산로41번길 5,,한국전력,1899-2100,33.4010138,126.8709732,2019-06-30
"성산하수처리장",주차장,제주특별자치도,연중무휴,00:00,23:59,Y,Y,AC3상+DC차데모 +DC콤보,1,1,N,제주특별자치도 서귀포시 성산읍 고성동서로 115,,한국전력,1899-2100,33.4518197,126.9189457,2019-06-30
"수산1리 복지회관",주차장,제주특별자치도,연중무휴,00:00,23:59,Y,Y,AC3상+DC차데모 +DC콤보,2,1,N,제주특별자치도 서귀포시 성산읍 수산서남로 17,,한국전력,1899-2100,33.445846,126.8830815,2019-06-30
"용머리해안(주차장)",주차장,제주특별자치도,연중무휴,00:00,23:59,Y,Y,AC3상+DC차데모 +DC콤보,1,2,N,제주특별자치도 서귀포시 안덕면 사계남로216번길 28,,한국전력,1899-2100,33.2337921,126.3109307,2019-06-30
"안덕계곡 주차장",주차장,제주특별자치도,연중무휴,00:00,23:59,N,Y,AC3상+DC차데모 +DC콤보,0,2,N,제주특별자치도 서귀포시 안덕면 감산리 345,,한국전력,1899-2100,33.2576211,126.3532545,2019-06-30
"안덕면 종합복지회관",주차장,제주특별자치도,연중무휴,00:00,23:59,N,Y,AC3상+DC차데모 +DC콤보,0,1,N,제주특별자치도 서귀포시 안덕면 화순로 121-6,,한국전력,1899-2100,33.2458455,126.3332062,2019-06-30
"안덕생활체육관",주차장,제주특별자치도,연중무휴,00:00,23:59,N,Y,AC3상+DC차데모 +DC콤보,0,2,N,제주특별자치도 서귀포시 안덕면 화순서서로 59,,한국전력,1899-2100,33.2558062,126.3283213,2019-06-30
"청소년 문화의 집",주차장,제주특별자치도,연중무휴,00:00,23:59,N,Y,AC3상+DC차데모 +DC콤보,0,1,N,제주특별자치도 서귀포시 안덕면 화순로56번길 20,,한국전력,1899-2100,33.2495585,126.3371369,2019-06-30
"서귀포교육지원청",주차장,제주특별자치도,연중무휴,00:00,23:59,N,Y,AC3상+DC차데모 +DC콤보,0,2,N,제주특별자치도 서귀포시 토평로 43,,한국전력,1899-2100,33.2705664,126.5892146,2019-06-30
"영실매표소",주차장,제주특별자치도,연중무휴,00:00,23:59,N,Y,AC3상+DC차데모 +DC콤보,0,1,N,제주특별자치도 서귀포시 영실로 246(하원동),,한국전력,1899-2100,33.34010219,126.4805139,2019-06-30
"제주국제평화센터",주차장,제주특별자치도,연중무휴,00:00,23:59,N,Y,AC3상+DC차데모 +DC콤보,0,2,N,제주특별자치도 서귀포시 중문관광로 227-24(중문동),,한국전력,1899-2100,33.2443989,126.4218997,2019-06-30
"가시리 조랑말체험공원",주차장,제주특별자치도,연중무휴,00:00,23:59,N,Y,AC3상+DC차데모 +DC콤보,0,1,N,제주특별자치도 서귀포시 표선면 녹산로 381-15,,한국전력,1899-2100,33.38309728,126.7362849,2019-06-30
"표선해양경비단",주차장,제주특별자치도,연중무휴,00:00,23:59,N,Y,AC3상+DC차데모 +DC콤보,0,1,N,제주특별자치도 서귀포시 표선면 번영로 3262,,한국전력,1899-2100,33.3565925,126.8219062,2019-06-30
"새마을금고제주연수원",주차장,제주특별자치도,연중무휴,00:00,23:59,N,Y,AC3상+DC차데모 +DC콤보,0,2,N,제주특별자치도 제주시 애월읍 소길리 155-18,제주특별자치도 제주시 애월읍 소길리 155-18,한국전력,1899-2100,33.4135888,126.3946902,2019-06-30
"제주 경찰교육 센터",주차장,제주특별자치도,연중무휴,00:00,23:59,N,Y,AC3상+DC차데모 +DC콤보,0,1,N,제주특별자치도 제주시 516로 2927,,한국전력,1899-2100,33.4411629,126.5653998,2019-06-30
"생각하는정원",주차장,제주특별자치도,연중무휴,00:00,23:59,N,Y,AC3상+DC차데모 +DC콤보,0,2,N,제주특별자치도 제주시 한경면 저지리 1529-7,제주특별자치도 제주시 한경면 저지리 1529-7,한국전력,1899-2100,33.325988,126.2552095,2019-06-30
"탐라교육원",주차장,제주특별자치도,연중무휴,00:00,23:59,N,Y,AC3상+DC차데모 +DC콤보,0,1,N,제주특별자치도 제주시 오라2동 산 100,제주특별자치도 제주시 오라2동 산 100,한국전력,1899-2100,33.3616666,126.5291666,2019-06-30
"농어촌공사 제주지역본부",주차장,제주특별자치도,연중무휴,00:00,23:59,N,Y,AC3상+DC차데모 +DC콤보,0,1,N,제주특별자치도 제주시 선사로 12,,한국전력,1899-2100,33.522604,126.5872715,2019-06-30
"제주수산연구소",주차장,제주특별자치도,연중무휴,00:00,23:59,N,Y,AC3상+DC차데모 +DC콤보,0,1,N,제주특별자치도 제주시 외도2동 1925-7,제주특별자치도 제주시 외도2동 1925-7,한국전력,1899-2100,33.4938538,126.4290032,2019-06-30
"아트리움공연장",주차장,제주특별자치도,연중무휴,00:00,23:59,N,Y,AC3상+DC차데모 +DC콤보,0,2,N,제주특별자치도 제주시 해안동 2137-1,제주특별자치도 제주시 해안동 2137-1,한국전력,1899-2100,33.4649309,126.4553144,2019-06-30
"김영갑갤러리",주차장,제주특별자치도,연중무휴,00:00,23:59,N,Y,AC3상+DC차데모 +DC콤보,0,2,N,제주특별자치도 서귀포시 성산읍 삼달로 137,,한국전력,1899-2100,33.3720645,126.8541795,2019-06-30
"토이파크",주차장,제주특별자치도,연중무휴,00:00,23:59,N,Y,AC3상+DC차데모 +DC콤보,0,2,N,제주특별자치도 서귀포시 안덕면 동광리 383,,한국전력,1899-2100,33.3190856,126.3457347,2019-06-30
"마라도 가는 여객선",주차장,제주특별자치도,연중무휴,00:00,23:59,N,Y,AC3상+DC차데모 +DC콤보,0,1,N,제주특별자치도 서귀포시 대정읍 송악관광로 424,,한국전력,1899-2100,33.207412,126.2905823,2019-06-30
"건강과 성박물관",주차장,제주특별자치도,연중무휴,00:00,23:59,N,Y,AC3상+DC차데모 +DC콤보,0,3,N,제주특별자치도 서귀포시 안덕면 일주서로 1611,,한국전력,1899-2100,33.2546582,126.3467011,2019-06-30
"서커스월드공연장",주차장,제주특별자치도,연중무휴,00:00,23:59,N,Y,AC3상+DC차데모 +DC콤보,0,2,N,제주특별자치도 서귀포시 안덕면 동광리 886,제주특별자치도 서귀포시 안덕면 동광리 886,한국전력,1899-2100,33.3144112,126.3449392,2019-06-30
"신재생에너지홍보관",주차장,제주특별자치도,연중무휴,00:00,23:59,N,Y,AC3상+DC차데모 +DC콤보,0,4,N,제주특별자치도 제주시 구좌읍 해맞이해안로 712-3,,제주에너지공사,1899-8852,33.559415,126.8187356,2019-06-30
"다이아나호텔",주차장,제주특별자치도,연중무휴,00:00,23:59,Y,Y,AC3상+DC차데모 +DC콤보,1,1,N,제주특별자치도 제주시 임항로 249(건입동),,한국전기차충전서비스,1522-1782,33.51781026,126.5395457,2019-06-30
"제주시농협 하나로마트",주차장,제주특별자치도,연중무휴,00:00,23:59,Y,Y,AC3상+DC차데모 +DC콤보,1,1,N,제주특별자치도 제주시 남광로 206(일도이동),,한국전기차충전서비스,1522-1782,33.5029625,126.553699,2019-06-30
"㈜꼬뜨도르",주차장,제주특별자치도,고객외 이용불가,00:00,23:59,Y,N,,1,0,N,제주특별자치도 제주시 구좌읍 일주동로 1724,,한국전기차충전서비스,1522-1782,33.5520509,126.7168459,2019-06-30
"롯데하이마트 신제주점",주차장,제주특별자치도,연중무휴,00:00,23:59,N,Y,AC3상+DC차데모 +DC콤보,0,1,N,제주특별자치도 제주시 도령로 16(노형동),,한국전기차충전서비스,1522-1782,33.4865713,126.4812285,2019-06-30
"제주시농협 하나로유통센터",주차장,제주특별자치도,연중무휴,00:00,23:59,Y,Y,AC3상+DC차데모 +DC콤보,1,1,N,제주특별자치도 제주시 월광로 77(노형동),,한국전기차충전서비스,1522-1782,33.4877055,126.4680465,2019-06-30
"넥슨박물관",주차장,제주특별자치도,연중무휴,00:00,23:59,Y,Y,AC3상+DC차데모 +DC콤보,1,1,N,제주특별자치도 제주시 1100로 3198-8,,한국전기차충전서비스,1522-1782,33.4720996,126.485864,2019-06-30
"현대블루핸즈 노형북부점",주차장,제주특별자치도,연중무휴,00:00,23:59,N,Y,AC3상+DC차데모 +DC콤보,0,1,N,제주특별자치도 제주시 월광로 43(노형동),,한국전기차충전서비스,1522-1782,33.4854792,126.4655444,2019-06-30
"세원멤버스 1차",주차장,제주특별자치도,고객외 이용불가,00:00,23:59,Y,N,,1,0,N,제주특별자치도 제주시 원노형 3길 13,,한국전기차충전서비스,1522-1782,33.4864363,126.4844124,2019-06-30
"㈜샹그릴라호텔",주차장,제주특별자치도,연중무휴,00:00,23:59,Y,N,,2,0,N,제주특별자치도 제주시 노형로 79,,한국전기차충전서비스,1522-1782,33.46431921,126.4547704,2019-06-30
"아모렉스리조트",주차장,제주특별자치도,연중무휴,00:00,23:59,N,Y,AC3상+DC차데모 +DC콤보,0,1,N,제주특별자치도 제주시 서해안로 216(도두일동),,한국전기차충전서비스,1522-1782,33.5074916,126.4702754,2019-06-30
"봉개명도암마을회",주차장,제주특별자치도,연중무휴,00:00,23:59,Y,N,,1,0,N,제주특별자치도 제주시 명림로 268-29,,한국전기차충전서비스,1522-1782,33.4616354,126.6070908,2019-06-30
"라마다호텔",주차장,제주특별자치도,연중무휴,00:00,23:59,Y,N,,2,0,N,제주특별자치도 제주시 탑동로 66(삼도이동),,한국전기차충전서비스,1522-1782,33.5185924,126.5175016,2019-06-30
"탑동2공영주차장",주차장,제주특별자치도,연중무휴,00:00,23:59,Y,Y,AC3상+DC차데모 +DC콤보,1,1,N,제주특별자치도 제주시 삼도이동 1257,,한국전기차충전서비스,1522-1782,33.5182983,126.5198951,2019-06-30
"제주대학교",주차장,제주특별자치도,연중무휴,00:00,23:59,Y,Y,AC3상+DC차데모 +DC콤보,3,1,N,제주특별자치도 제주시 제주대학로 102(아라일동),,한국전기차충전서비스,1522-1782,33.4572368,126.5642957,2019-06-30
"제주대학교",주차장,제주특별자치도,연중무휴,00:00,23:59,N,Y,AC3상+DC차데모 +DC콤보,,2,N,제주특별자치도 제주시 아란13길 15(아라일동),,한국전력,1899-2100,33.4670429,126.5457558,2019-06-30
"제주대학교 병원",주차장,제주특별자치도,연중무휴,00:00,23:59,Y,Y,AC3상+DC차데모 +DC콤보,2,1,N,제주특별자치도 제주시 아란13길 15(아라일동),,한국전기차충전서비스,1522-1782,33.4670429,126.5457558,2019-06-30
"현대블루핸즈 아라점",주차장,제주특별자치도,연중무휴,00:00,23:59,Y,N,,1,0,N,제주특별자치도 제주시 아라이동 148,,한국전기차충전서비스,1522-1782,33.4770461,126.5546419,2019-06-30
"관음사가는길",주차장,제주특별자치도,고객외 이용불가,00:00,23:59,Y,N,,1,0,N,제주특별자치도 제주시 산록북로 819,,한국전기차충전서비스,1522-1782,33.43755402,126.5544232,2019-06-30
"난지축산연구소",주차장,제주특별자치도,연중무휴,00:00,23:59,Y,N,,1,0,N,제주특별자치도 제주시 산록북로 593-50,,한국전기차충전서비스,1522-1782,33.4274500,126.5482938,2019-06-30
"애월농협",주차장,제주특별자치도,연중무휴,00:00,23:59,Y,Y,AC3상+DC차데모 +DC콤보,1,1,N,제주특별자치도 제주시 애월읍 애원로 41,,한국전기차충전서비스,1522-1782,33.460321,126.3215331,2019-06-30
"하귀농협 복지센터",주차장,제주특별자치도,연중무휴,00:00,23:59,Y,Y,AC3상+DC차데모 +DC콤보,1,1,N,제주특별자치도 제주시 애월읍 일주서로 7020,,한국전기차충전서비스,1522-1782,33.48130641,126.4003734,2019-06-30
"하귀농협 장례식장",주차장,제주특별자치도,연중무휴,00:00,23:59,Y,Y,AC3상+DC차데모 +DC콤보,1,1,N,제주특별자치도 제주시 애월읍 애조로 405,,한국전기차충전서비스,1522-1782,33.4730618,126.4265546,2019-06-30
"종이시계",주차장,제주특별자치도,고객외 이용불가,00:00,23:59,Y,N,,1,0,N,제주특별자치도 제주시 애월읍 애월해안로 899,,한국전기차충전서비스,1522-1782,33.4853375,126.3918721,2019-06-30
"현대캐피탈(가스공사제주기지건설단)",주차장,제주특별자치도,연중무휴,00:00,23:59,Y,N,,2,0,N,제주특별자치도 제주시 애월읍 애월리 1772-10,제주특별자치도 제주시 애월읍 애월리 1772-10,한국전기차충전서비스,1522-1782,33.4673079268,126.3215884001,2019-06-30
"연동공영주차장(로얄호텔앞)",주차장,제주특별자치도,연중무휴,00:00,23:59,Y,N,,3,0,Y,제주특별자치도 제주시 연동 272-31,제주특별자치도 제주시 연동 272-31,한국전기차충전서비스,1522-1782,33.4890445,126.491471086,2019-06-30
"현대블루핸즈 연동점",주차장,제주특별자치도,연중무휴,00:00,23:59,Y,N,,1,0,N,제주특별자치도 제주시 신대로21길 34-1(연동),,한국전기차충전서비스,1522-1782,33.4819314,126.5002893,2019-06-30
"한국충전㈜",주차장,제주특별자치도,연중무휴,00:00,23:59,Y,Y,AC3상+DC차데모 +DC콤보,2,2,N,제주특별자치도 제주시 연삼로 161(연동),,한국전기차충전서비스,1522-1782,33.5011704,126.5402581,2019-06-30
"이노우에스시",주차장,제주특별자치도,고객외 이용불가,00:00,23:59,Y,N,,1,0,N,제주특별자치도 제주시 과원로 78-1,,한국전기차충전서비스,1522-1782,33.4771542,126.491468,2019-06-30
"㈜삼원더",주차장,제주특별자치도,연중무휴,00:00,23:59,Y,N,,1,0,N,제주특별자치도 제주시 연북로 161,,한국전기차충전서비스,1522-1782,33.4821031,126.4987553,2019-06-30
"㈜제이워드",주차장,제주특별자치도,연중무휴,00:00,23:59,Y,N,,2,0,N,제주특별자치도 제주시 삼무로 57,,한국전기차충전서비스,1522-1782,33.4900205,126.4928772,2019-06-30
"평원해모아빌",주차장,제주특별자치도,입주민외 이용불가,00:00,23:59,Y,N,,2,0,N,제주특별자치도 제주시 연사2길 76,,한국전기차충전서비스,1522-1782,33.4828244,126.5111798,2019-06-30
"한국자동차 공업사",주차장,제주특별자치도,연중무휴,00:00,23:59,Y,N,,1,0,N,제주특별자치도 제주시 오라로 72,,한국전기차충전서비스,1522-1782,33.4954658,126.5109145,2019-06-30
"기아오토큐 오라동대리점",주차장,제주특별자치도,연중무휴,00:00,23:59,N,Y,AC3상+DC차데모 +DC콤보,0,1,N,제주특별자치도 제주시 연삼로 116(오라삼동),,한국전기차충전서비스,1522-1782,33.5004858,126.5319206,2019-06-30
"현대블루핸즈 외도점",주차장,제주특별자치도,연중무휴,00:00,23:59,Y,N,,1,0,N,제주특별자치도 제주시 우평로 342(외도일동),,한국전기차충전서비스,1522-1782,33.4842129,126.4301617,2019-06-30
"롯데리아 제주외도 DT",주차장,제주특별자치도,연중무휴,00:00,23:59,Y,Y,AC3상+DC차데모 +DC콤보,1,1,N,제주특별자치도 제주시 일주서로 7335(외도이동),,한국전기차충전서비스,1522-1782,33.49322448,126.4307653,2019-06-30
"재영샤르빌",주차장,제주특별자치도,입주민외 이용불가,00:00,23:59,Y,N,,1,0,N,제주특별자치도 제주시 절물3길 32-4,,한국전기차충전서비스,1522-1782,33.48991644,126.4329045,2019-06-30
"형제자동차공업사(1급)",주차장,제주특별자치도,연중무휴,00:00,23:59,N,Y,AC3상+DC차데모 +DC콤보,0,1,N,제주특별자치도 제주시 외도동 2023-5,,한국전기차충전서비스,1522-1782,33.4916997,126.4236567,2019-06-30
"제주공항 입구 공영주차장",주차장,제주특별자치도,연중무휴,00:00,23:59,Y,Y,AC3상+DC차데모 +DC콤보,1,1,Y,제주특별자치도 제주시 다호북길 7(용담이동),,한국전기차충전서비스,1522-1782,33.50367575,126.4957118,2019-06-30
"태대산",주차장,제주특별자치도,연중무휴,00:00,23:59,Y,N,,1,0,N,제주특별자치도 제주시 월성로 4길 19,,한국전기차충전서비스,1522-1782,33.50117174,126.5034532,2019-06-30
"토끼와거북이",주차장,제주특별자치도,연중무휴,00:00,23:59,N,Y,AC3상+DC차데모 +DC콤보,0,1,N,제주특별자치도 제주시 서해안로 498-6(용담삼동),,한국전기차충전서비스,1522-1782,33.5188204,126.4921734,2019-06-30
"제주정부종합청사",주차장,제주특별자치도,연중무휴,00:00,23:59,Y,Y,AC3상+DC차데모 +DC콤보,1,1,N,제주특별자치도 제주시 청사로 59(도남동),,한국전기차충전서비스,1522-1782,33.490454,126.5253079,2019-06-30
"조천농협 농산물산지유통센터",주차장,제주특별자치도,연중무휴,00:00,23:59,Y,Y,AC3상+DC차데모 +DC콤보,1,1,N,제주특별자치도 제주시 조천읍 일주동로 757,,한국전기차충전서비스,1522-1782,33.5129246,126.5529036,2019-06-30
"세븐일레븐제주함덕게스트하우스점",주차장,제주특별자치도,고객외 이용불가,00:00,23:59,Y,N,,1,0,N,제주특별자치도 제주시 신북로 643,,한국전기차충전서비스,1522-1782,33.540729,126.6782084,2019-06-30
"농업회사법인 경덕주식회사(다희연)",주차장,제주특별자치도,연중무휴,00:00,23:59,Y,N,,2,0,N,제주특별자치도 제주시 조천읍 선교로 115-1,,한국전기차충전서비스,1522-1782,33.4868384,126.707013,2019-06-30
"제주필하우스",주차장,제주특별자치도,연중무휴,00:00,23:59,N,Y,AC3상+DC차데모 +DC콤보,0,1,N,제주특별자치도 제주시 조천읍 일주동로 1415,,한국전기차충전서비스,1522-1782,33.544947,126.6863809,2019-06-30
"함덕농협 하나로마트",주차장,제주특별자치도,연중무휴,00:00,23:59,N,Y,AC3상+DC차데모 +DC콤보,0,1,N,제주특별자치도 제주시 조천읍 함와로 40(함덕리),,한국전기차충전서비스,1522-1782,33.536657,126.674625,2019-06-30
"바다목장",주차장,제주특별자치도,연중무휴,00:00,23:59,Y,Y,AC3상+DC차데모 +DC콤보,1,1,N,제주특별자치도 제주시 한경면 한경해안로 565,,한국전기차충전서비스,1522-1782,33.34607951,126.1793437,2019-06-30
"한경농협",주차장,제주특별자치도,연중무휴,00:00,23:59,Y,Y,AC3상+DC차데모 +DC콤보,1,1,N,제주특별자치도 제주시 한경면 신한로 76,,한국전기차충전서비스,1522-1782,33.3465629,126.1902065,2019-06-30
GS25 너울빌리지점,주차장,제주특별자치도,연중무휴,00:00,23:59,N,Y,AC3상+DC차데모 +DC콤보,0,1,N,제주특별자치도 제주시 한경면 일주서로 4469,,한국전기차충전서비스,1522-1782,33.36274266,126.1933741,2019-06-30
"현대블루핸즈 한림점",주차장,제주특별자치도,연중무휴,00:00,23:59,N,Y,AC3상+DC차데모 +DC콤보,0,1,N,제주특별자치도 제주시 한림읍 일주서로 5697(귀덕리),,한국전기차충전서비스,1522-1782,33.4358428,126.2778418,2019-06-30
"성이시돌피정의집",주차장,제주특별자치도,연중무휴,00:00,23:59,Y,N,,1,0,N,제주특별자치도 제주시 한림읍 산록남로 53,,한국전기차충전서비스,1522-1782,33.345324,126.3217722,2019-06-30
"황사평갤럭시타운자치운영회",주차장,제주특별자치도,연중무휴,00:00,23:59,Y,N,,1,0,N,제주특별자치도 제주시 황사평6길 58,,한국전기차충전서비스,1522-1782,33.49373035,126.5593309,2019-06-30
"남원하나로마트",주차장,제주특별자치도,연중무휴,00:00,23:59,Y,Y,AC3상+DC차데모 +DC콤보,1,1,N,제주특별자치도 서귀포시 남원읍 남조로 52,,한국전기차충전서비스,1522-1782,33.2843692,126.7217541,2019-06-30
"기아오토큐 화북대리점",주차장,제주특별자치도,연중무휴,00:00,23:59,N,Y,AC3상+DC차데모 +DC콤보,0,1,N,제주특별자치도 제주시 화북2동 4835,제주특별자치도 제주시 화북2동 4835,한국전기차충전서비스,1522-1782,33.5117859,126.5492751,2019-06-30
"위미농협",주차장,제주특별자치도,연중무휴,00:00,23:59,Y,Y,AC3상+DC차데모 +DC콤보,1,1,N,제주특별자치도 서귀포시 남원읍 태위로 126,,한국전기차충전서비스,1522-1782,33.2745832,126.6609677,2019-06-30
"동국개발(스프링데일C.C)",주차장,제주특별자치도,연중무휴,00:00,23:59,Y,N,,2,0,N,제주특별자치도 서귀포시 남원읍 서성로 459(위미리),,한국전기차충전서비스,1522-1782,33.3295216,126.6380209,2019-06-30
"은빌레펜션",주차장,제주특별자치도,고객외 이용불가,00:00,23:59,Y,N,,1,0,N,제주특별자치도 서귀포시 남원읍 의귀리 794,제주특별자치도 서귀포시 남원읍 의귀리 794,한국전기차충전서비스,1522-1782,33.3117075,126.71662535,2019-06-30
"뜨리바다펜션",주차장,제주특별자치도,연중무휴,00:00,23:59,Y,N,,1,0,N,제주특별자치도 서귀포시 남원읍 남원리 2397,제주특별자치도 서귀포시 남원읍 남원리 2397,한국전기차충전서비스,1522-1782,33.2715279,126.6997188,2019-06-30
"현대1차 연립주택",주차장,제주특별자치도,입주민외 이용불가,00:00,23:59,Y,N,,1,0,N,제주특별자치도 서귀포시 신서귀로 10,,한국전기차충전서비스,1522-1782,33.24943215,126.511775,2019-06-30
"레지나펜션",주차장,제주특별자치도,고객외 이용불가,00:00,23:59,Y,N,,1,0,N,제주특별자치도 서귀포시 이어도로 789,,한국전기차충전서비스,1522-1782,33.2368373,126.4995612,2019-06-30
"희준카센타",주차장,제주특별자치도,연중무휴,00:00,23:59,N,Y,AC3상+DC차데모 +DC콤보,0,1,N,제주특별자치도 서귀포시 대정읍 일주서로 2968,,한국전기차충전서비스,1522-1782,33.24693381,126.2221662,2019-06-30
"코리아마트",주차장,제주특별자치도,연중무휴,00:00,23:59,Y,Y,AC3상+DC차데모 +DC콤보,2,1,N,제주특별자치도 서귀포시 동홍서로 42-6(동홍동),,한국전기차충전서비스,1522-1782,33.2523774,126.570198,2019-06-30
"롯데하이마트 서귀포점",주차장,제주특별자치도,연중무휴,00:00,23:59,N,Y,AC3상+DC차데모 +DC콤보,0,1,N,제주특별자치도 서귀포시 일주동로 8631(동홍동),,한국전기차충전서비스,1522-1782,33.2539126,126.5661853,2019-06-30
"천지공영주차장",주차장,제주특별자치도,연중무휴,00:00,23:59,Y,Y,AC3상+DC차데모 +DC콤보,1,1,N,제주특별자치도 서귀포시 서귀동 305-1외 2필지,제주특별자치도 서귀포시 서귀동 305-1외 2필지,한국전기차충전서비스,1522-1782,33.2515976,126.5594295,2019-06-30
KT성산포지점,주차장,제주특별자치도,연중무휴,00:00,23:59,Y,Y,AC3상+DC차데모 +DC콤보,1,1,N,제주특별자치도 서귀포시 성산읍 서성일로 1244-3,,한국전기차충전서비스,1522-1782,33.446787,126.9118527,2019-06-30
"현대오일뱅크 선반내주유소",주차장,제주특별자치도,연중무휴,00:00,23:59,N,Y,AC3상+DC차데모 +DC콤보,0,1,N,제주특별자치도 서귀포시 일주동로 8780(서홍동),,한국전기차충전서비스,1522-1782,33.2529872,126.5509089,2019-06-30
"잠도둑 게스트하우스",주차장,제주특별자치도,연중무휴,00:00,23:59,Y,Y,AC3상+DC차데모 +DC콤보,1,1,N,제주특별자치도 서귀포시 성산읍 일주동로 5379,,한국전기차충전서비스,1522-1782,33.3588533,126.864433,2019-06-30
"호텔마레",주차장,제주특별자치도,고객외 이용불가,00:00,23:59,Y,N,,1,0,N,제주특별자치도 서귀포시 성산읍 고성리 444-7,제주특별자치도 서귀포시 성산읍 고성리 444-7,한국전기차충전서비스,1522-1782,33.4418080568,126.918739304,2019-06-30
"휴리조트",주차장,제주특별자치도,고객외 이용불가,00:00,23:59,Y,N,,1,0,N,제주특별자치도 서귀포시 성산읍 난고로 228,,한국전기차충전서비스,1522-1782,33.42096574,126.8940423,2019-06-30
"성산아쿠아비치호텔",주차장,제주특별자치도,고객외 이용불가,00:00,23:59,Y,N,,2,0,N,제주특별자치도 서귀포시 성산읍 일주동로 4258,,한국전기차충전서비스,1522-1782,33.4483373,126.9119979,2019-06-30
"키아오라 펜션",주차장,제주특별자치도,고객외 이용불가,00:00,23:59,Y,N,,1,0,N,제주특별자치도 서귀포시 성산읍 난고로 42번길 3,,한국전기차충전서비스,1522-1782,33.4342204,126.9050229,2019-06-30
GS25 서광점,주차장,제주특별자치도,연중무휴,00:00,23:59,N,Y,AC3상+DC차데모 +DC콤보,0,1,N,제주특별자치도 서귀포시 안덕면 중산간서로 1882,,한국전기차충전서비스,1522-1782,33.28923399,126.3220078,2019-06-30
"동광 R 주차장",주차장,제주특별자치도,연중무휴,00:00,23:59,N,Y,AC3상+DC차데모 +DC콤보,0,1,N,제주특별자치도 서귀포시 안덕면 동광리 827,제주특별자치도 서귀포시 안덕면 동광리 827,한국전기차충전서비스,1522-1782,33.3109558,126.3416458,2019-06-30
"안덕농협하나로마트",주차장,제주특별자치도,연중무휴,00:00,23:59,N,Y,AC3상+DC차데모 +DC콤보,0,1,N,제주특별자치도 서귀포시 안덕면 화순로 122,,한국전기차충전서비스,1522-1782,33.2465809,126.333321,2019-06-30
"카멜리아힐",주차장,제주특별자치도,고객외 이용불가,00:00,23:59,Y,N,,1,0,N,제주특별자치도 서귀포시 안덕면 병악로 166,,한국전기차충전서비스,1522-1782,33.2901143,126.3684044,2019-06-30
"한우명품관",주차장,제주특별자치도,연중무휴,00:00,23:59,Y,Y,AC3상+DC차데모 +DC콤보,1,1,N,제주특별자치도 서귀포시 일주동로 8421(토평동),,한국전기차충전서비스,1522-1782,33.2572426,126.5885177,2019-06-30
"제일요양원",주차장,제주특별자치도,연중무휴,00:00,23:59,Y,N,,1,0,N,제주특별자치도 서귀포시 정방연로 52-8,,한국전기차충전서비스,1522-1782,33.2521107,126.577921,2019-06-30
"대유랜드",주차장,제주특별자치도,연중무휴,00:00,23:59,Y,Y,AC3상+DC차데모 +DC콤보,1,1,N,제주특별자치도 서귀포시 상예로 381(상예동),,한국전기차충전서비스,1522-1782,33.2787568,126.394896,2019-06-30
"롯데호텔",주차장,제주특별자치도,연중무휴,00:00,23:59,Y,Y,AC3상+DC차데모 +DC콤보,1,13,N,제주특별자치도 서귀포시 중문관광로72번길 35(색달동),,한국전기차충전서비스,1522-1782,33.2485349,126.4103936,2019-06-30
WE호텔(한라의료재단),주차장,제주특별자치도,연중무휴,00:00,23:59,Y,N,,2,0,N,제주특별자치도 서귀포시 1100로 453-95,,한국전기차충전서비스,1522-1782,33.2862186,126.4442655,2019-06-30
WE호텔(한라의료재단),주차장,제주특별자치도,연중무휴,00:00,23:59,Y,N,,2,0,N,제주특별자치도 서귀포시 1100로 453-95,,포스코ICT,1600-4047,33.2862186,126.4442655,2019-06-30
GS25 대포점,주차장,제주특별자치도,연중무휴,00:00,23:59,N,Y,AC3상+DC차데모 +DC콤보,0,1,N,제주특별자치도 서귀포시 이어도로 129(대포동),,한국전기차충전서비스,1522-1782,33.23916549,126.436134,2019-06-30
GS25 중문사거리점,주차장,제주특별자치도,연중무휴,00:00,23:59,N,Y,AC3상+DC차데모 +DC콤보,0,1,N,제주특별자치도 서귀포시 중문로 80(중문동),,한국전기차충전서비스,1522-1782,33.25821268,126.4269498,2019-06-30
"하얏트리젠시제주호텔",주차장,제주특별자치도,연중무휴,00:00,23:59,Y,N,,2,0,N,제주특별자치도 서귀포시 중문관광로72번길 114(색달동),,한국전기차충전서비스,1522-1782,33.2455761,126.4055533,2019-06-30
"켄싱턴제주호텔",주차장,제주특별자치도,연중무휴,00:00,23:59,Y,N,,4,0,N,제주특별자치도 서귀포시 중문관광로72번길 60(색달동),,한국전기차충전서비스,1522-1782,33.2520261,126.4077400,2019-06-30
"켄싱턴제주호텔",주차장,제주특별자치도,연중무휴,00:00,23:59,Y,N,,4,0,N,제주특별자치도 서귀포시 중문관광로72번길 60(색달동),,포스코ICT,1600-4047,33.2520261,126.4077400,2019-06-30
"약천사",주차장,제주특별자치도,연중무휴,00:00,23:59,Y,Y,AC3상+DC차데모 +DC콤보,1,1,N,제주특별자치도 서귀포시 하원동 1698-1,제주특별자치도 서귀포시 하원동 1698-1,한국전기차충전서비스,1522-1782,33.2888115,126.4603899,2019-06-30
"중문메리디안",주차장,제주특별자치도,고객외 이용불가,00:00,23:59,Y,N,,1,0,N,제주특별자치도 서귀포시 1100로 36,,한국전기차충전서비스,1522-1782,33.25397374,126.435335,2019-06-30
"성읍랜드",주차장,제주특별자치도,연중무휴,00:00,23:59,Y,Y,AC3상+DC차데모 +DC콤보,1,1,N,제주특별자치도 서귀포시 표선면 번영로 2658-2,,한국전기차충전서비스,1522-1782,33.39830245,126.7871594,2019-06-30
"표선농협",주차장,제주특별자치도,연중무휴,00:00,23:59,Y,Y,AC3상+DC차데모 +DC콤보,1,1,N,제주특별자치도 서귀포시 표선면 표선동서로 233,,한국전기차충전서비스,1522-1782,33.3247771,126.8319867,2019-06-30
NH농협은행 제주수련원,주차장,제주특별자치도,연중무휴,00:00,23:59,Y,Y,AC3상+DC차데모 +DC콤보,2,1,N,제주특별자치도 서귀포시 표선면 세화리 1567-1(주차장),제주특별자치도 서귀포시 표선면 세화리 1567-1(주차장),한국전기차충전서비스,1522-1782,33.3255768,126.7999334,2019-06-30
"허브펜션오즈",주차장,제주특별자치도,고객외 이용불가,00:00,23:59,Y,N,,1,0,N,제주특별자치도 서귀포시 표선백사로 58번길 36,,한국전기차충전서비스,1522-1782,33.31857259,126.8336526,2019-06-30
"㈜상효원",주차장,제주특별자치도,연중무휴,00:00,23:59,Y,Y,AC3상+DC차데모 +DC콤보,1,1,N,제주특별자치도 서귀포시 산록남로 2847-37(상효동),,한국전기차충전서비스,1522-1782,33.3072182,126.5860938,2019-06-30
"중문푸른마을아파트",주차장,제주특별자치도,입주민외 이용불가,00:00,23:59,Y,N,,2,0,N,제주특별자치도 서귀포시 천제연로 239,,한국전기차충전서비스,1522-1782,33.2527739,126.4313219,2019-06-30
"막동주차장",주차장,제주특별자치도,연중무휴,00:00,23:59,Y,N,,3,0,N,제주특별자치도 서귀포시 막동산로 48(서호동),,한국전기차충전서비스,1522-1782,33.2558886,126.5210466,2019-06-30
"한국해양과학기술원",주차장,제주특별자치도,연중무휴,00:00,23:59,Y,N,,1,0,N,제주특별자치도 제주시 구좌읍 일주동로 2670,,한국전기차충전서비스,1522-1782,33.54306416,126.8115262,2019-06-30
"메리엘 오션 아파트",주차장,제주특별자치도,입주민외 이용불가,00:00,23:59,Y,N,,1,0,N,제주특별자치도 제주시 한림읍 한림로 621,,한국전기차충전서비스,1522-1782,33.4122594,126.2601842,2019-06-30
"봉you",주차장,제주특별자치도,연중무휴,00:00,23:59,Y,N,,1,0,N,제주특별자치도 서귀포시 안덕면 중산간서로 1817,,한국전기차충전서비스,1522-1782,33.28684416,126.328214,2019-06-30
"메모리아리조트",주차장,제주특별자치도,연중무휴,00:00,23:59,Y,N,,2,0,N,제주특별자치도 서귀포시 성산읍 일주동로 5199-3,,한국전기차충전서비스,1522-1782,33.37412972,126.8723834,2019-06-30
"라림부띠끄호텔",주차장,제주특별자치도,연중무휴,00:00,23:59,Y,N,,2,0,N,제주특별자치도 서귀포시 안덕면 대평로 39,,한국전기차충전서비스,1522-1782,33.23682499,126.3629425,2019-06-30
"한국남부발전㈜ 남제주발전본부",주차장,제주특별자치도,연중무휴,00:00,23:59,Y,N,,1,0,N,제주특별자치도 서귀포시 안덕면 화순해안로106번길 55,,한국전기차충전서비스,1522-1782,33.2367154,126.3403647,2019-06-30
GS성산아로하점,주차장,제주특별자치도,연중무휴,00:00,23:59,Y,N,,1,0,N,제주특별자치도 서귀포시 성산읍 성산등용로 40,,한국전기차충전서비스,1522-1782,33.4663822,126.9310406,2019-06-30
"국립환경과학원_제주대기오염측정소",주차장,제주특별자치도,연중무휴,00:00,23:59,Y,N,,1,0,N,제주특별자치도 제주시 애월읍 화전안길 20-5,,한국전기차충전서비스,1522-1782,33.34683851,126.3885261,2019-06-30
"리젠트마린호텔",주차장,제주특별자치도,연중무휴,00:00,23:59,Y,N,,2,0,N,제주특별자치도 제주시 서부두2길 20(건입동),,제주전기자동차서비스,1670-2690,33.51745201,126.5267819,2019-06-30
"호텔 휘슬락",주차장,제주특별자치도,연중무휴,00:00,23:59,Y,N,,1,0,N,제주특별자치도 제주시 서부두2길 26(건입동),,제주전기자동차서비스,1670-2690,33.51737905,126.5275099,2019-06-30
"노형 미리내S클래스APT",주차장,제주특별자치도,입주민외 이용불가,00:00,23:59,Y,N,,3,0,N,제주특별자치도 제주시 광평동로 66(노형동 103동 지하2층),,제주전기자동차서비스,1670-2690,33.4856571,126.4679685,2019-06-30
"아모렉스리조트",주차장,제주특별자치도,연중무휴,00:00,23:59,Y,N,,1,0,N,제주특별자치도 제주시 서해안로 216(도두일동),,제주전기자동차서비스,1670-2690,33.5074916,126.4702754,2019-06-30
"첨단과학기술단지",주차장,제주특별자치도,연중무휴,00:00,23:59,Y,N,,5,0,N,제주특별자치도 제주시 첨단로 213-3(영평동),,제주전기자동차서비스,1670-2690,33.4537553,126.5726665,2019-06-30
"경마공원",주차장,제주특별자치도,연중무휴,00:00,23:59,Y,N,,2,0,N,제주특별자치도 제주시 애월읍 평화로 2144,,제주전기자동차서비스,1670-2690,33.4078226,126.3942137,2019-06-30
"엘리시안C.C",주차장,제주특별자치도,연중무휴,00:00,23:59,Y,N,,2,0,N,제주특별자치도 제주시 애월읍 평화로 1738-116,,제주전기자동차서비스,1670-2690,33.3719462,126.3817449,2019-06-30
"올레리조트",주차장,제주특별자치도,연중무휴,00:00,23:59,Y,N,,2,0,N,제주특별자치도 제주시 애월읍 부룡수길 33,,제주전기자동차서비스,1670-2690,33.4756942,126.3558489,2019-06-30
"보오메꾸뜨르호텔",주차장,제주특별자치도,연중무휴,00:00,23:59,Y,N,,1,0,N,제주특별자치도 제주시 신광로 95(연동),,제주전기자동차서비스,1670-2690,33.4834889,126.4901596,2019-06-30
"제주 웰컴센터",주차장,제주특별자치도,연중무휴,00:00,23:59,Y,Y,AC3상+DC차데모 +DC콤보,2,1,N,제주특별자치도 제주시 선덕로 23,,제주전기자동차서비스,1670-2690,33.4863166,126.4990979,2019-06-30
JIBS사옥 주차장,주차장,제주특별자치도,연중무휴,00:00,23:59,Y,N,,1,0,N,제주특별자치도 제주시 연삼로 95(오라삼동),,제주전기자동차서비스,1670-2690,33.4938653,126.5025175,2019-06-30
"맥도날드 공항점",주차장,제주특별자치도,연중무휴,00:00,23:59,Y,N,,1,0,N,제주특별자치도 제주시 도령로 159(용담이동),,제주전기자동차서비스,1670-2690,33.4951553,126.4926946,2019-06-30
KBS사옥 주차장,주차장,제주특별자치도,연중무휴,00:00,23:59,Y,N,,1,0,N,제주특별자치도 제주시 복지로1길 8(도남동),,제주전기자동차서비스,1670-2690,33.4891086,126.519415,2019-06-30
"제주전기렌트카",주차장,제주특별자치도,연중무휴,00:00,23:59,N,Y,AC3상+DC차데모 +DC콤보,0,2,N,제주특별자치도 제주시 서해안로 22-5,,제주전기자동차서비스,1670-2690,33.50038661,126.4572692,2019-06-30
"대명리조트",주차장,제주특별자치도,연중무휴,00:00,23:59,Y,N,,2,0,N,제주특별자치도 제주시 조천읍 신북로 577,,제주전기자동차서비스,1670-2690,33.5412863,126.6714847,2019-06-30
"바다어사또",주차장,제주특별자치도,연중무휴,00:00,23:59,Y,N,,1,0,N,제주특별자치도 제주시 조천읍 조함해안로 478,,제주전기자동차서비스,1670-2690,33.54306556,126.6640234,2019-06-30
"에코랜드 테마파크",주차장,제주특별자치도,연중무휴,00:00,23:59,Y,N,,3,0,N,제주특별자치도 제주시 조천읍 대흘리 산38-1,제주특별자치도 제주시 조천읍 대흘리 산38-1,제주전기자동차서비스,1670-2690,33.4605994,126.6705494,2019-06-30
"라온프라이빗타운",주차장,제주특별자치도,연중무휴,00:00,23:59,Y,N,,3,0,N,제주특별자치도 제주시 한림읍 협재리 산149-6,제주특별자치도 제주시 한림읍 협재리 산149-6,제주전기자동차서비스,1670-2690,33.3807358,126.2482491,2019-06-30
"한림공원",주차장,제주특별자치도,연중무휴,00:00,23:59,Y,Y,AC3상+DC차데모 +DC콤보,3,1,N,제주특별자치도 제주시 한림읍 협재리 2487,제주특별자치도 제주시 한림읍 협재리 2487,제주전기자동차서비스,1670-2690,33.3894949,126.2396825,2019-06-30
"금호리조트",주차장,제주특별자치도,연중무휴,00:00,23:59,Y,N,,2,0,N,제주특별자치도 서귀포시 남원읍 태위로 522-12,,제주전기자동차서비스,1670-2690,33.27365445,126.7027559,2019-06-30
"맥도날드월드컵점",주차장,제주특별자치도,연중무휴,00:00,23:59,Y,N,,1,0,N,제주특별자치도 서귀포시 일주서로 7(강정동),,제주전기자동차서비스,1670-2690,33.264983,126.3712742,2019-06-30
"홈플러스",주차장,제주특별자치도,연중무휴,00:00,23:59,N,Y,AC3상+DC차데모 +DC콤보,0,2,N,제주특별자치도 서귀포시 중앙로 180(동홍동),,제주전기자동차서비스,1670-2690,33.2604879,126.5600101,2019-06-30
"소인국테마파크",주차장,제주특별자치도,연중무휴,00:00,23:59,Y,Y,AC3상+DC차데모 +DC콤보,2,2,N,제주특별자치도 서귀포시 안덕면 중산간서로 1878,,제주전기자동차서비스,1670-2690,33.2904213,126.322602,2019-06-30
"박물관은살아있다",주차장,제주특별자치도,연중무휴,00:00,23:59,Y,N,,2,0,N,제주특별자치도 서귀포시 중문관광로 42(색달동),,제주전기자동차서비스,1670-2690,33.2549224,126.4087187,2019-06-30
"신라호텔",주차장,제주특별자치도,연중무휴,00:00,23:59,Y,Y,AC3상+DC차데모 +DC콤보,5,5,N,제주특별자치도 서귀포시 중문관광로72번길 75(색달동),,제주전기자동차서비스,1670-2690,33.2475582,126.4081161,2019-06-30
"아프리카박물관",주차장,제주특별자치도,연중무휴,00:00,23:59,Y,N,,1,0,N,제주특별자치도 서귀포시 이어도로 49(대포동),,제주전기자동차서비스,1670-2690,33.2398402,126.4291443,2019-06-30
"중문교회",주차장,제주특별자치도,연중무휴,00:00,23:59,N,Y,AC3상+DC차데모 +DC콤보,0,1,N,제주특별자치도 서귀포시 일주서로 835(색달동),,제주전기자동차서비스,1670-2690,33.258334,126.4214249,2019-06-30
"중문덤장",주차장,제주특별자치도,연중무휴,00:00,23:59,Y,Y,DC차데모 +DC콤보,1,1,N,제주특별자치도 서귀포시 천제연로 17(색달동),,제주전기자동차서비스,1670-2690,33.2576625,126.4082795,2019-06-30
"사이프러스 CC",주차장,제주특별자치도,연중무휴,00:00,23:59,Y,N,,2,0,N,제주특별자치도 서귀포시 표선면 번영로 2300,,제주전기자동차서비스,1670-2690,33.4105154,126.7516772,2019-06-30
"제주민속촌박물관",주차장,제주특별자치도,연중무휴,00:00,23:59,Y,N,,1,0,N,제주특별자치도 서귀포시 표선면 민속해안로 631-34,,제주전기자동차서비스,1670-2690,33.3223451,126.8414874,2019-06-30
"해비치리조트",주차장,제주특별자치도,연중무휴,00:00,23:59,Y,Y,AC3상+DC차데모 +DC콤보,2,3,N,제주특별자치도 서귀포시 표선면 민속해안로 537,,제주전기자동차서비스,1670-2690,33.3234478,126.8447796,2019-06-30
"㈜다온디엔씨",주차장,제주특별자치도,연중무휴,00:00,23:59,Y,N,,2,0,N,제주특별자치도 제주시 연동6길 11,,제주전기자동차서비스,1670-2690,33.48469849,126.4894091,2019-06-30
"세계자동차제주박물관",주차장,제주특별자치도,연중무휴,00:00,23:59,Y,N,,2,0,N,제주특별자치도 서귀포시 안덕면 중산간서로 1610,,제주전기자동차서비스,1670-2690,33.2831948,126.349772,2019-06-30
"상남아크로타워",주차장,제주특별자치도,연중무휴,00:00,23:59,N,Y,AC3상+DC차데모 +DC콤보,0,9,N,제주특별자치도 서귀포시 대정읍 글로벌에듀로 370,,상명엔지니어링,,33.28070729,126.2782605,2019-06-30
"블루하와이리조트",주차장,제주특별자치도,연중무휴,00:00,23:59,Y,N,,2,0,N,제주특별자치도 한림읍 한림로 77,,제주전기자동차서비스,1670-2690,33.389522,126.2392559,2019-06-30
"제주다온",주차장,제주특별자치도,연중무휴,00:00,23:59,Y,N,,1,0,N,제주특별자치도 제주시 조천읍 북선로 322-15,,제주전기자동차서비스,1670-2690,33.51263744,126.6956900215,2019-06-30
"마더카페",주차장,제주특별자치도,연중무휴,00:00,23:59,Y,N,,2,0,N,제주특별자치도 서귀포시 남원읍 태위로 894번길 45,,제주전기자동차서비스,1670-2690,33.281192,126.7415575,2019-06-30
"해밀관광호스텔",주차장,제주특별자치도,연중무휴,00:00,23:59,Y,N,,1,0,N,제주특별자치도 제주시 애월읍 광상로 272,,제주전기자동차서비스,1670-2690,33.44362708,126.404100044,2019-06-30
"제주지방경찰청 제주한라경찰수련원",주차장,제주특별자치도,연중무휴,00:00,23:59,Y,N,,1,0,N,제주특별자치도 제주시 명림로 381,,제주전기자동차서비스,1670-2690,33.4549372,126.6197994,2019-06-30
"천일각",주차장,제주특별자치도,연중무휴,00:00,23:59,Y,N,,2,0,N,제주특별자치도 제주시 서광로 112,,제주전기자동차서비스,1670-2690,33.49968395,126.5083861,2019-06-30
"해비치안",주차장,제주특별자치도,연중무휴,00:00,23:59,Y,N,,2,0,N,제주특별자치도 서귀포시 성산읍 신고로 11,,제주전기자동차서비스,1670-2690,33.43787139,126.9156975,2019-06-30
"세븐일레븐 온평",주차장,제주특별자치도,연중무휴,00:00,23:59,N,Y,DC차데모 +DC콤보,0,1,N,제주특별자치도 서귀포시 성산읍 환해장성로 667,,제주전기자동차서비스,1670-2690,33.41319489,126.9090256,2019-06-30
"세븐일레븐 산방산로드",주차장,제주특별자치도,연중무휴,00:00,23:59,N,Y,AC3상+DC차데모 +DC콤보,0,1,N,제주특별자치도 서귀포시 안덕면 사계리 253-3,안덕면 사계리 253-3,제주전기자동차서비스,1670-2690,33.2376527,126.3072228,2019-06-30
"세븐일레븐 애월신엄",주차장,제주특별자치도,연중무휴,00:00,23:59,N,Y,AC3상+DC차데모 +DC콤보,0,1,N,제주특별자치도 제주시 애월읍 신엄리 2409-3,애월읍 신엄리 2409-3,제주전기자동차서비스,1670-2690,33.4701674,126.363791,2019-06-30
"수목원테마파크",주차장,제주특별자치도,연중무휴,00:00,23:59,N,Y,AC3상+DC차데모 +DC콤보,0,1,N,제주특별자치도 제주시 은수길 69(연동),,제주전기자동차서비스,1670-2690,33.4705849,126.4882806,2019-06-30
"금자탑",주차장,제주특별자치도,연중무휴,00:00,23:59,Y,N,,2,0,N,제주특별자치도 제주시 용담1동 159-1,제주특별자치도 제주시 용담1동 159-1,KT,1522-0123,33.5106545,126.5191158,2019-06-30
"일성레저산업 제주지점",주차장,제주특별자치도,연중무휴,00:00,23:59,Y,N,,1,0,N,제주특별자치도 제주시 한림읍 한림로 127,,KT,1522-0123,33.3852479,126.2212993,2019-06-30
"제주조각공원",주차장,제주특별자치도,연중무휴,00:00,23:59,Y,N,,3,0,N,제주특별자치도 서귀포시 일주서로 1836,,KT,1522-0123,33.256807,126.321633,2019-06-30
"성산리사무소",주차장,제주특별자치도,연중무휴,00:00,23:59,Y,N,,2,0,N,제주특별자치도 서귀포시 성산읍 성산중앙로 46,,KT,1522-0123,33.4636138,126.9340253,2019-06-30
"스웨덴호스텔",주차장,제주특별자치도,연중무휴,00:00,23:59,Y,N,,2,0,N,제주특별자치도 제주시 한림읍 명재로 100-47,제주특별자치도 제주시 한림읍 명재로 100-47 외 2필지,KT,1522-0123,33.39066857,126.2602554,2019-06-30
"월령리 사무소",주차장,제주특별자치도,연중무휴,00:00,23:59,Y,N,,1,0,N,제주특별자치도 제주시 한림읍 월령1길 11,,KT,1522-0123,33.3759326,126.2156608,2019-06-30
"옹포리 새마을회",주차장,제주특별자치도,연중무휴,00:00,23:59,Y,N,,2,0,N,제주특별자치도 제주시 한림읍 월계로21,,KT,1522-0123,33.4033901,126.2558273,2019-06-30
"대림리 새마을회",주차장,제주특별자치도,연중무휴,00:00,23:59,Y,N,,2,0,N,제주특별자치도 제주시 한림읍 한수풀로 180,,KT,1522-0123,33.4223937,126.2812876,2019-06-30
"귀덕2리새마을회",주차장,제주특별자치도,연중무휴,00:00,23:59,Y,N,,2,0,N,제주특별자치도 제주시 한림읍 귀덕3길 44,,KT,1522-0123,33.44182177,126.2793725,2019-06-30
"마마스민박",주차장,제주특별자치도,연중무휴,00:00,23:59,Y,N,,2,0,N,제주특별자치도 제주시 한림읍 한림읍 옹포4길 24,,KT,1522-0123,33.4038406,126.2517757,2019-06-30
"조수일리마을회",주차장,제주특별자치도,연중무휴,00:00,23:59,Y,N,,2,0,N,제주특별자치도 제주시 한경면 홍수암로 565,,KT,1522-0123,33.3372366,126.2286613,2019-06-30
"아이미제주비치호텔",주차장,제주특별자치도,연중무휴,00:00,23:59,Y,N,,2,0,N,제주특별자치도 제주시 조천읍 조함해안로 474,,KT,1522-0123,33.54328389,126.6634153,2019-06-30
"명월리 마을회",주차장,제주특별자치도,연중무휴,00:00,23:59,Y,N,,1,0,N,제주특별자치도 제주시 한림읍 명월로 71,,KT,1522-0123,33.3869787,126.2667095,2019-06-30
"서귀포시 축협",주차장,제주특별자치도,연중무휴,00:00,23:59,Y,N,,2,0,N,제주특별자치도 서귀포시 안덕면 중간서로 1914-11,,KT,1522-0123,33.2427859,126.4348705,2019-06-30
"성산포 성당",주차장,제주특별자치도,연중무휴,00:00,23:59,Y,N,,2,0,N,제주특별자치도 서귀포시 성산읍 고성오조로 120,,KT,1522-0123,33.4539782,126.9145078,2019-06-30
"종달리새마을회",주차장,제주특별자치도,연중무휴,00:00,23:59,Y,N,,2,0,N,제주특별자치도 제주시 구좌읍 종달동길 3,,KT,1522-0123,33.49260229,126.9005966,2019-06-30
"하도리새마을회",주차장,제주특별자치도,연중무휴,00:00,23:59,Y,N,,1,0,N,제주특별자치도 제주시 구좌읍 문주란로 1,,KT,1522-0123,33.5186102,126.8824691,2019-06-30
"행원리 새마을회",주차장,제주특별자치도,연중무휴,00:00,23:59,Y,N,,1,0,N,제주특별자치도 제주시 구좌읍 행원로 3길 18-21,,KT,1522-0123,33.5525323,126.8059236,2019-06-30
"상도리 새마을회",주차장,제주특별자치도,연중무휴,00:00,23:59,Y,N,,1,0,N,제주특별자치도 제주시 구좌읍 상도남길 37,,KT,1522-0123,33.5152904,126.865601,2019-06-30
"덕천리 새마을회",주차장,제주특별자치도,연중무휴,00:00,23:59,Y,N,,2,0,N,제주특별자치도 제주시 구좌읍 덕평로 365,,KT,1522-0123,33.5022289,126.771547,2019-06-30
"신흥1리 새마을회",주차장,제주특별자치도,연중무휴,00:00,23:59,Y,N,,2,0,N,제주특별자치도 서귀포시 남원읍 신흥로 34,,KT,1522-0123,33.304171,126.7670212,2019-06-30
"대흘2리사무소",주차장,제주특별자치도,연중무휴,00:00,23:59,Y,N,,1,0,N,제주특별자치도 제주시 조천읍 대흘리 573,,KT,1522-0123,33.5141282,126.6713436,2019-06-30
"동복리사무소",주차장,제주특별자치도,연중무휴,00:00,23:59,Y,N,,1,0,N,제주특별자치도 제주시 조천우회로 988,,KT,1522-0123,33.54818349,126.7068025,2019-06-30
"선흘2리 마을회",주차장,제주특별자치도,연중무휴,00:00,23:59,Y,N,,2,0,N,제주특별자치도 제주시 조천읍 선진길 7-10,,KT,1522-0123,33.4593556,126.7033584,2019-06-30
"두모리마을회",주차장,제주특별자치도,연중무휴,00:00,23:59,Y,N,,2,0,N,제주특별자치도 제주시 한경면 두모11길 52-1,,KT,1522-0123,33.35748203,126.1830528,2019-06-30
"현광협(오크라)",주차장,제주특별자치도,연중무휴,00:00,23:59,Y,N,,2,0,N,제주특별자치도 제주시 신광로 4길 38,,KT,1522-0123,33.48910971,126.4860734,2019-06-30
"판포리 마을회",주차장,제주특별자치도,연중무휴,00:00,23:59,Y,N,,1,0,N,제주특별자치도 제주시 한경면 판포4길 39,,KT,1522-0123,33.3625057,126.2032586,2019-06-30
"상대리 마을회",주차장,제주특별자치도,연중무휴,00:00,23:59,Y,N,,1,0,N,제주특별자치도 제주시 한림읍 중산간서로 4950,,KT,1522-0123,33.4072403,126.2935318,2019-06-30
"(재)제주구천주교회유지재단",주차장,제주특별자치도,연중무휴,00:00,23:59,Y,N,,2,0,N,제주특별자치도 제주시 한경면 용수1길 108,,KT,1522-0123,33.3227927,126.1677958,2019-06-30
"신풍리 사무소",주차장,제주특별자치도,연중무휴,00:00,23:59,Y,N,,2,0,N,제주특별자치도 서귀포시 성산읍 풍천로 227,,KT,1522-0123,33.3611883,126.8354996,2019-06-30
"인성리 사무실",주차장,제주특별자치도,연중무휴,00:00,23:59,Y,N,,1,0,N,제주특별자치도 서귀포시 대정읍 향교로75번길 60,,KT,1522-0123,33.2477907,126.2805421,2019-06-30
"북촌리 사무소",주차장,제주특별자치도,연중무휴,00:00,23:59,Y,N,,2,0,N,제주특별자치도 제주시 조천읍 일주동로 1514,,KT,1522-0123,33.548014,126.6960026,2019-06-30
"천주교 하귀성당",주차장,제주특별자치도,연중무휴,00:00,23:59,Y,N,,1,0,N,제주특별자치도 제주시 애월읍 하귀로 23길 21,,KT,1522-0123,33.4786114,126.4036176,2019-06-30
"신촌리 사무소",주차장,제주특별자치도,연중무휴,00:00,23:59,Y,N,,2,0,N,제주특별자치도 제주시 조천읍 신북로 54,,KT,1522-0123,33.5332317,126.6203747,2019-06-30
"주식회사 샐리스",주차장,제주특별자치도,연중무휴,00:00,23:59,Y,N,,2,0,N,제주특별자치도 제주시 애월읍 고내로 46,,KT,1522-0123,33.4706349,126.3545665,2019-06-30
"주식회사 어라운드폴리",주차장,제주특별자치도,연중무휴,00:00,23:59,Y,N,,2,0,N,제주특별자치도 서귀포시 성산읍 서성일로 433,,KT,1522-0123,33.41583536,126.8358843,2019-06-30
"대신자동차매매상사",주차장,제주특별자치도,연중무휴,00:00,23:59,Y,N,,2,0,N,제주특별자치도 제주시 일주동로 91-6,,KT,1522-0123,33.5153899978,126.5562375,2019-06-30
"(주)메이풀하우스유스호스텔",주차장,제주특별자치도,연중무휴,00:00,23:59,Y,N,,2,0,N,제주특별자치도 제주시 조천읍 곱은달서길 165,,KT,1522-0123,33.5011023,126.6616581,2019-06-30
"해호텔",주차장,제주특별자치도,연중무휴,00:00,23:59,Y,N,,1,0,N,제주특별자치도 제주시 용담3동 1161,제주특별자치도 제주시 용담3동 1161,KT,1522-0123,33.5197387,126.495252,2019-06-30
"우도면 천진리",주차장,제주특별자치도,연중무휴,00:00,23:59,Y,N,,2,0,N,제주특별자치도 제주시 우도면 천진길 10,,KT,1522-0123,33.4948384,126.951612,2019-06-30
"브리즈베이호텔",주차장,제주특별자치도,연중무휴,00:00,23:59,Y,N,,1,0,N,제주특별자치도 서귀포시 성산읍 성산등용로 42,,KT,1522-0123,33.46659527,126.9308464,2019-06-30
"삼육구",주차장,제주특별자치도,연중무휴,00:00,23:59,Y,N,,2,0,N,제주특별자치도 제주시 조천읍 와흘로 369,,KT,1522-0123,33.4736957,126.6457121,2019-06-30
"수망관광휴양펜션",주차장,제주특별자치도,연중무휴,00:00,23:59,Y,N,,2,0,N,제주특별자치도 서귀포시 남원읍 서성로 986-24,,KT,1522-0123,33.3362835,126.6977757,2019-06-30
"그랜드골프 연습장",주차장,제주특별자치도,연중무휴,00:00,23:59,Y,N,,1,0,N,제주특별자치도 서귀포시 토평서로 26,,KT,1522-0123,33.2761141,126.5830394,2019-06-30
"한림정낭장례식장",주차장,제주특별자치도,연중무휴,00:00,23:59,Y,N,,2,0,N,제주특별자치도 제주시 한림읍 명랑로 76,,KT,1522-0123,33.4127644,126.272198,2019-06-30
"블라제리조트",주차장,제주특별자치도,연중무휴,00:00,23:59,Y,N,,2,0,N,제주특별자치도 서귀포시 표선면 녹산로 274,,KT,1522-0123,33.3792785,126.746889,2019-06-30
"제주오라성",주차장,제주특별자치도,연중무휴,00:00,23:59,Y,N,,2,0,N,제주특별자치도 제주시 오라남로 16,,KT,1522-0123,33.4596254,126.5120062,2019-06-30
"성읍2리마을회",주차장,제주특별자치도,연중무휴,00:00,23:59,Y,N,,2,0,N,제주특별자치도 서귀포시 표선면 성읍리 3006,제주특별자치도 서귀포시 표선면 성읍리 3006,KT,1522-0123,33.4185166,126.7688469,2019-06-30
"꿈꾸는 노마드",주차장,제주특별자치도,연중무휴,00:00,23:59,Y,N,,1,0,N,제주특별자치도 서귀포시 강정동 1026-1,제주특별자치도 서귀포시 강정동 1026-1,KT,1522-0123,33.2416981125,126.499556077,2019-06-30
"휴마루 호스텔 카페",주차장,제주특별자치도,연중무휴,00:00,23:59,Y,N,,2,0,N,제주특별자치도 서귀포시 서홍동 1777-3,제주특별자치도 서귀포시 서홍동 1777-3,KT,1522-0123,33.2612932,126.542613623,2019-06-30
"더 블루 제주 라스지오르",주차장,제주특별자치도,연중무휴,00:00,23:59,Y,N,,2,0,N,제주특별자치도 서귀포시 칠십리로 479,,KT,1522-0123,33.2419986,126.6016934,2019-06-30
"프라임 산후조리원",주차장,제주특별자치도,연중무휴,00:00,23:59,Y,N,,2,0,N,제주특별자치도 제주시 오남로 82,,KT,1522-0123,33.478369,126.5165949,2019-06-30
"서귀포중앙 골프연습장",주차장,제주특별자치도,연중무휴,00:00,23:59,Y,N,,2,0,N,제주특별자치도 서귀포시 동홍로 303번길 30,,KT,1522-0123,33.2743014,126.5642979,2019-06-30
"수앤수 가족호텔",주차장,제주특별자치도,연중무휴,00:00,23:59,Y,N,,2,0,N,제주특별자치도 제주시 애월읍 부룡수길 60,,KT,1522-0123,33.47454087,126.3585877,2019-06-30
"뉴월드 골프타운",주차장,제주특별자치도,연중무휴,00:00,23:59,Y,N,,2,0,N,제주특별자치도 서귀포시 강정동 1531,제주특별자치도 서귀포시 강정동 1531,KT,1522-0123,33.2616543,126.5070174,2019-06-30
"한빛 분향소",주차장,제주특별자치도,연중무휴,00:00,23:59,Y,N,,1,0,N,제주특별자치도 서귀포시 동홍동 1518-1,제주특별자치도 서귀포시 동홍동 1518-1,KT,1522-0123,33.2663197,126.5671727,2019-06-30
"노형골프클럽",주차장,제주특별자치도,연중무휴,00:00,23:59,Y,N,,2,0,N,제주특별자치도 제주시 한라대학로 114,,KT,1522-0123,33.4759667,126.4828885,2019-06-30
"샤뜰레펜션",주차장,제주특별자치도,연중무휴,00:00,23:59,Y,N,,2,0,N,제주특별자치도 서귀포시 서호호근로 46번길 68,,KT,1522-0123,33.2480275,126.5289509,2019-06-30
"제주에코 스위츠",주차장,제주특별자치도,연중무휴,00:00,23:59,Y,N,,2,0,N,제주특별자치도 서귀포시 중문동 944-5,제주특별자치도 서귀포시 중문동 944-5,KT,1522-0123,33.2654004135,126.427735755,2019-06-30
"㈜오제이상사",주차장,제주특별자치도,연중무휴,00:00,23:59,Y,N,,2,0,N,제주특별자치도 제주시 애월읍 유수암평화길 162,,KT,1522-0123,33.4298351,126.4089152,2019-06-30
"한국 천주교 엠마오 연수원",주차장,제주특별자치도,연중무휴,00:00,23:59,Y,N,,2,0,N,제주특별자치도 제주시 한림읍 금악리 105-4,제주특별자치도 제주시 한림읍 금악리 105-4,KT,1522-0123,33.3414099521,126.321681117,2019-06-30
"천주교 제주교구 청수성당",주차장,제주특별자치도,연중무휴,00:00,23:59,Y,N,,2,0,N,제주특별자치도 제주시 한경면 중산간 서로 3521 청수성당,,KT,1522-0123,33.3227757,126.2461178,2019-06-30
"대한 예수교 한림교회",주차장,제주특별자치도,연중무휴,00:00,23:59,Y,N,,2,0,N,제주특별자치도 제주시 한림읍 한림로 14길 13,,KT,1522-0123,33.4159308,126.266916,2019-06-30
"대한 예수교 애월교회",주차장,제주특별자치도,연중무휴,00:00,23:59,Y,N,,2,0,N,제주특별자치도 제주시 애월읍 애월로 18길 5,,KT,1522-0123,33.4628585,126.3261739,2019-06-30
"무릉2리마을회",주차장,제주특별자치도,연중무휴,00:00,23:59,Y,N,,2,0,N,제주특별자치도 서귀포시 대정읍 중산간 서로2868,,KT,1522-0123,33.2747978,126.2353875,2019-06-30
"안성리마을회",주차장,제주특별자치도,연중무휴,00:00,23:59,Y,N,,2,0,N,제주특별자치도 서귀포시 대정읍 추사로 10-1,,KT,1522-0123,33.2501849,126.2818826,2019-06-30
"선앤문",주차장,제주특별자치도,연중무휴,00:00,23:59,Y,N,,2,0,N,제주특별자치도 제주시 애월읍 곽지리 1635,제주특별자치도 제주시 애월읍 곽지리 1635,KT,1522-0123,33.4500504,126.308394898,2019-06-30
"구억리마을회",주차장,제주특별자치도,연중무휴,00:00,23:59,Y,N,,1,0,N,제주특별자치도 서귀포시 대정읍 중산간서로 2380,,KT,1522-0123,33.2728481,126.2792043,2019-06-30
"태백산 제주 본점",주차장,제주특별자치도,연중무휴,00:00,23:59,Y,N,,2,0,N,제주특별자치도 제주시 도공로 154-12,,KT,1522-0123,33.49471726,126.4672045,2019-06-30
"펠리체 리조트",주차장,제주특별자치도,연중무휴,00:00,23:59,Y,N,,2,0,N,제주특별자치도 서귀포시 태평로 111,,KT,1522-0123,33.24442153,126.534997,2019-06-30
"한림2리새마을회",주차장,제주특별자치도,연중무휴,00:00,23:59,Y,N,,1,0,N,제주특별자치도 제주시 한림읍 한림남길 6,,KT,1522-0123,33.4114546,126.2685905,2019-06-30
"신도1리마을회",주차장,제주특별자치도,연중무휴,00:00,23:59,Y,N,,2,0,N,제주특별자치도 서귀포시 대정읍 도원로 217,,KT,1522-0123,33.2783854,126.1918199,2019-06-30
"대한예수교장로회 서귀포교회",주차장,제주특별자치도,연중무휴,00:00,23:59,Y,N,,2,0,N,제주특별자치도 서귀포시 동홍동 444-1,제주특별자치도 서귀포시 동홍동 444-1,KT,1522-0123,33.2663197,126.5671727,2019-06-30
"하소로지역아동센터",주차장,제주특별자치도,연중무휴,00:00,23:59,Y,N,,2,0,N,제주특별자치도 제주시 애월읍 유수암리 2832,제주특별자치도 제주시 애월읍 유수암리 2832,KT,1522-0123,33.423023,126.3967336,2019-06-30
"제주스카이라인휴양펜션",주차장,제주특별자치도,연중무휴,00:00,23:59,Y,N,,2,0,N,제주특별자치도 제주시 주르레남길 19,,KT,1522-0123,33.44141416,126.4831887,2019-06-30
"성읍1리마을회",주차장,제주특별자치도,연중무휴,00:00,23:59,Y,N,,2,0,N,제주특별자치도 서귀포시 표선면 중산간동로 4658,,KT,1522-0123,33.3899135,126.7977896,2019-06-30
"오젠정식",주차장,제주특별자치도,연중무휴,00:00,23:59,Y,N,,2,0,N,제주특별자치도 제주시 명림로 220,,KT,1522-0123,33.4674092,126.6105107,2019-06-30
"고금삼계탕",주차장,제주특별자치도,연중무휴,00:00,23:59,Y,N,,2,0,N,제주특별자치도 서귀포시 표선면 번영로3248번길 7,,KT,1522-0123,33.3726822,126.7971235,2019-06-30
"천주교제주교구 조천성당",주차장,제주특별자치도,연중무휴,00:00,23:59,Y,N,,2,0,N,제주특별자치도 제주시 조천읍 조천2길 19,,KT,1522-0123,33.5329058,126.6316287,2019-06-30
"호텔화인",주차장,제주특별자치도,연중무휴,00:00,23:59,Y,N,,2,0,N,제주특별자치도 서귀포시 칠십리로 87,,KT,1522-0123,33.2403247,126.5651122,2019-06-30
"제주민속식품",주차장,제주특별자치도,연중무휴,00:00,23:59,Y,N,,2,0,N,제주특별자치도 제주시 구좌읍 번영로 2178,,KT,1522-0123,33.4281022,126.7510394,2019-06-30
"제주통나무휴양펜션",주차장,제주특별자치도,연중무휴,00:00,23:59,Y,N,,2,0,N,제주특별자치도 서귀포시 표선면 하천리 1583,제주특별자치도 서귀포시 표선면 하천리 1583,KT,1522-0123,33.3510659,126.8238500,2019-06-30
"주식회사 탐라신들의 고향",주차장,제주특별자치도,연중무휴,00:00,23:59,Y,N,,2,0,N,제주특별자치도 제주시 조천읍 선교로 474,,KT,1522-0123,33.4628154,126.7088403,2019-06-30
"성미가든",주차장,제주특별자치도,연중무휴,00:00,23:59,Y,N,,2,0,N,제주특별자치도 제주시 조천읍 교래리 533,제주특별자치도 제주시 조천읍 교래리 533,KT,1522-0123,33.4375878326,126.67708136,2019-06-30
"제주나인리조트",주차장,제주특별자치도,연중무휴,00:00,23:59,Y,N,,2,0,N,제주특별자치도 제주시 해안마을북길 14-5,,KT,1522-0123,33.4650239,126.4537337,2019-06-30
"신례1리마을회",주차장,제주특별자치도,연중무휴,00:00,23:59,Y,N,,2,0,N,제주특별자치도 서귀포시 남원읍 신례중앙로 37,,KT,1522-0123,33.2880916,126.6271158,2019-06-30
"㈜레이크힐스리조트제주",주차장,제주특별자치도,연중무휴,00:00,23:59,Y,N,,2,0,N,제주특별자치도 서귀포시 상예동 4611,,KT,1522-0123,33.2674383,126.3769731,2019-06-30
"송악리조트렌트",주차장,제주특별자치도,연중무휴,00:00,23:59,Y,N,,2,0,N,제주특별자치도 서귀포시 대정읍 형제해안로 256-8,,KT,1522-0123,33.21232307,126.2916634,2019-06-30
"청지목",주차장,제주특별자치도,연중무휴,00:00,23:59,Y,N,,1,0,N,제주특별자치도 제주시 조천읍 교래리 651,제주특별자치도 제주시 조천읍 교래리 651,KT,1522-0123,33.4252649,126.6725711,2019-06-30
"안다미로",주차장,제주특별자치도,연중무휴,00:00,23:59,Y,N,,1,0,N,제주특별자치도 제주시 조천읍 비자림로 648,,KT,1522-0123,33.4363054,126.6766625,2019-06-30
"스노우빈",주차장,제주특별자치도,연중무휴,00:00,23:59,Y,N,,1,0,N,제주특별자치도 제주시 조천읍 비자림로 702-41,,KT,1522-0123,33.4322959,126.6792772,2019-06-30
"아름",주차장,제주특별자치도,연중무휴,00:00,23:59,Y,N,,1,0,N,제주특별자치도 제주시 조천읍 교래리 570,제주특별자치도 제주시 조천읍 교래리 570,KT,1522-0123,33.4356103,126.6787796,2019-06-30
"다락",주차장,제주특별자치도,연중무휴,00:00,23:59,Y,N,,1,0,N,제주특별자치도 제주시 조천읍 비자림로 658,,KT,1522-0123,33.4369041,126.6771728,2019-06-30
"곶자왈",주차장,제주특별자치도,연중무휴,00:00,23:59,Y,N,,1,0,N,제주특별자치도 제주시 조천읍 비자림로 631,,KT,1522-0123,33.4354718,126.6748406,2019-06-30
"새순지역아동센터",주차장,제주특별자치도,연중무휴,00:00,23:59,Y,N,,1,0,N,제주특별자치도 제주시 대통길 3,,KT,1522-0123,33.4926817,126.4423443,2019-06-30
"해바라기지역아동센터",주차장,제주특별자치도,연중무휴,00:00,23:59,Y,N,,2,0,N,제주특별자치도 제주시 구좌읍 평대리 3349-9,제주특별자치도 제주시 구좌읍 평대리 3349-9,KT,1522-0123,33.5264879,126.8542789,2019-06-30
"꿈쟁이 지역아동센터",주차장,제주특별자치도,연중무휴,00:00,23:59,Y,N,,1,0,N,제주특별자치도 제주시 용담2동 655-12,제주특별자치도 제주시 용담2동 655-12,KT,1522-0123,33.5072672,126.5068606,2019-06-30
"토계정",주차장,제주특별자치도,연중무휴,00:00,23:59,Y,N,,1,0,N,제주특별자치도 제주시 조천읍 교래3길 1,,KT,1522-0123,33.4367741,126.6772425,2019-06-30
"주식회사 아름다운리조트",주차장,제주특별자치도,고객외 이용불가,00:00,23:59,Y,N,,1,0,N,제주특별자치도 서귀포시 성산읍 해맞이해안로 2644,,KT,1522-0123,33.4752383,126.9101641,2019-06-30
"주식회사 아름다운리조트",주차장,제주특별자치도,고객외 이용불가,00:00,23:59,Y,N,,1,0,N,제주특별자치도 서귀포시 성산읍 해맞이해안로 2644,,포스코ICT,1600-4047,33.4752383,126.9101641,2019-06-30
"호텔더본제주",주차장,제주특별자치도,연중무휴,00:00,23:59,Y,N,,4,0,N,제주특별자치도 서귀포시 색달로 18,,KT,1522-0123,33.3023572,126.421912,2019-06-30
"사단법인 웃뜨르운영협의회",주차장,제주특별자치도,연중무휴,00:00,23:59,Y,N,,2,0,N,제주특별자치도 제주시 한경면 청수리 113-3,제주특별자치도 제주시 한경면 청수리 113-3 빛센터 1층,KT,1522-0123,33.3018459,126.2582554,2019-06-30
"㈜ 테마 (제주지점)",주차장,제주특별자치도,연중무휴,00:00,23:59,Y,N,,2,0,N,제주특별자치도 제주시 애월읍 애월로1길 8,,KT,1522-0123,33.4630443,126.3124885,2019-06-30
"(재)대한예수교장로회금성교회",주차장,제주특별자치도,연중무휴,00:00,23:59,Y,N,,2,0,N,제주특별자치도 제주시 애월읍 금성리 436-3,제주특별자치도 제주시 애월읍 금성리 436-3,KT,1522-0123,33.4463282,126.302726,2019-06-30
"중문제일행복한 홈스쿨지역아동센터",주차장,제주특별자치도,연중무휴,00:00,23:59,Y,N,,2,0,N,제주특별자치도 서귀포시 1100로49번길 11 (중문동),,KT,1522-0123,33.254145,126.4333083,2019-06-30
"비전지역아동센터",주차장,제주특별자치도,연중무휴,00:00,23:59,Y,N,,2,0,N,제주특별자치도 서귀포시 강정동 1514,제주특별자치도 서귀포시 강정동 1514,KT,1522-0123,33.2622909,126.5008946,2019-06-30
"항운노조새마을금고",주차장,제주특별자치도,연중무휴,00:00,23:59,Y,N,,2,0,N,제주특별자치도 제주시 서해안로 192,,KT,1522-0123,33.5053914,126.468711,2019-06-30
"지에스25(GS25)수산삼거리점",주차장,제주특별자치도,연중무휴,00:00,23:59,Y,N,,2,0,N,제주특별자치도 서귀포시 성산읍 서성일로 1029,,KT,1522-0123,33.44359874,126.888659,2019-06-30
"제주승마장",주차장,제주특별자치도,연중무휴,00:00,23:59,Y,N,,2,0,N,제주특별자치도 제주시 조천읍 교래리 산10-1,제주특별자치도 제주시 조천읍 교래리 산10-1,KT,1522-0123,33.4087482,126.635052,2019-06-30
OK승마장,주차장,제주특별자치도,연중무휴,00:00,23:59,Y,N,,2,0,N,제주특별자치도 서귀포시 표선면 번영로 2595,,KT,1522-0123,33.4027906,126.7831873,2019-06-30
"풍경호스텔",주차장,제주특별자치도,연중무휴,00:00,23:59,Y,N,,2,0,N,제주특별자치도 서귀포시 남성로 117,,KT,1522-0123,33.24237001,126.5528623,2019-06-30
"풍경호텔",주차장,제주특별자치도,연중무휴,00:00,23:59,Y,N,,2,0,N,제주특별자치도 서귀포시 남성중로 147,,KT,1522-0123,33.2449600,126.553764,2019-06-30
"남쪽나라빌",주차장,제주특별자치도,연중무휴,00:00,23:59,Y,N,,2,0,N,제주특별자치도 서귀포시 천제연로 133-1(중문동),,KT,1522-0123,33.2541121,126.4198762,2019-06-30
"오렌지슈가 주식회사",주차장,제주특별자치도,연중무휴,00:00,23:59,Y,N,,2,0,N,제주특별자치도 제주시 애월읍 하광로 540-66,,KT,1522-0123,33.44115754,126.4287999,2019-06-30
"하예1마을회",주차장,제주특별자치도,연중무휴,00:00,23:59,Y,N,,2,0,N,제주특별자치도 서귀포시 하예로 1-3(하예동),,KT,1522-0123,33.2434657,126.3861414,2019-06-30
"상예2마을회",주차장,제주특별자치도,연중무휴,00:00,23:59,Y,N,,1,0,N,제주특별자치도 서귀포시 존제로15번길2 (상예동),,KT,1522-0123,33.2656791,126.3770217,2019-06-30
"상예1동마을회",주차장,제주특별자치도,연중무휴,00:00,23:59,Y,N,,2,0,N,제주특별자치도 서귀포시 예래로144번길 42 2층(상예동),,KT,1522-0123,33.2487318,126.3905888,2019-06-30
"예래5동마을회",주차장,제주특별자치도,연중무휴,00:00,23:59,Y,N,,1,0,N,제주특별자치도 서귀포시 예래로 416(하예동),,KT,1522-0123,33.2365993,126.3732700,2019-06-30
"에스케이핀크스 주식회사",주차장,제주특별자치도,연중무휴,00:00,23:59,Y,N,,2,0,N,제주특별자치도 서귀포시 안덕면 산록남로 863,,KT,1522-0123,33.3053535,126.3937346,2019-06-30
"제주힐",주차장,제주특별자치도,연중무휴,00:00,23:59,Y,N,,2,0,N,제주특별자치도 제주시 애월읍 하소로 507,,KT,1522-0123,33.43792401,126.3933982,2019-06-30
"에바다호스텔",주차장,제주특별자치도,연중무휴,00:00,23:59,Y,N,,1,0,N,제주특별자치도 제주시 이호일동 1812-8,제주특별자치도 제주시 이호일동 1812-8외 1필지,KT,1522-0123,33.4972839,126.447497,2019-06-30
"레드윌호스텔",주차장,제주특별자치도,연중무휴,00:00,23:59,Y,N,,2,0,N,제주특별자치도 제주시 현사길 33 (이호일동),,KT,1522-0123,33.4969752,126.4487625,2019-06-30
"성진교회",주차장,제주특별자치도,연중무휴,00:00,23:59,Y,N,,2,0,N,제주특별자치도 제주시 삼봉로 162 (도련일동),,KT,1522-0123,33.5070933,126.590678,2019-06-30
"주식회사 로봇스퀘어",주차장,제주특별자치도,연중무휴,00:00,23:59,Y,N,,2,0,N,제주특별자치도 제주시 구좌읍 해맞이해안로 1032,,KT,1522-0123,33.5159059,126.8548625,2019-06-30
"㈜ 뉴월드삼화점",주차장,제주특별자치도,연중무휴,00:00,23:59,Y,N,,2,0,N,제주특별자치도 제주시 일주동로 233,,KT,1522-0123,33.5197394,126.5701983,2019-06-30
"대한예수교장로회서귀포제일교회",주차장,제주특별자치도,연중무휴,00:00,23:59,Y,N,,2,0,N,제주특별자치도 서귀포시 정방연로 48 (토평동),,KT,1522-0123,33.2520997,126.5772000,2019-06-30
"디아일랜드마리나호텔",주차장,제주특별자치도,연중무휴,00:00,23:59,Y,N,,2,0,N,제주특별자치도 서귀포시 성산읍 고성오조로 94,,KT,1522-0123,33.4520047,126.9143227,2019-06-30
"한국마사회제주육성목장",주차장,제주특별자치도,연중무휴,00:00,23:59,Y,N,,2,0,N,제주특별자치도 제주시 조천읍 나조로 1660,,KT,1522-0123,33.4188744,126.6821974,2019-06-30
"제주오름 승마랜드",주차장,제주특별자치도,연중무휴,00:00,23:59,Y,N,,2,0,N,제주특별자치도 제주시 조천읍 번영로 1734-15,,KT,1522-0123,33.4489847,126.7135119,2019-06-30
"거문오름유스호스텔",주차장,제주특별자치도,연중무휴,00:00,23:59,Y,N,,1,0,N,제주특별자치도 제주시 조천읍 선교로 434-2,,KT,1522-0123,33.4674748,126.7090918,2019-06-30
"한수리새마을회",주차장,제주특별자치도,연중무휴,00:00,23:59,Y,N,,2,0,N,제주특별자치도 제주시 한림읍 한림로 739,,KT,1522-0123,33.4208672,126.2637948,2019-06-30
"동명새마을회",주차장,제주특별자치도,연중무휴,00:00,23:59,Y,N,,2,0,N,제주특별자치도 제주시 한림읍 한림중앙로 62,,KT,1522-0123,33.4092003,126.2655233,2019-06-30
"㈜대명레저제주 제주지점",주차장,제주특별자치도,연중무휴,00:00,23:59,Y,N,,5,0,N,제주특별자치도 서귀포시 표선면 일주동로 6347-17,,KT,1522-0123,33.3056347,126.7921182,2019-06-30
"다인오세아노호텔",주차장,제주특별자치도,연중무휴,00:00,23:59,Y,N,,2,0,N,제주특별자치도 제주시 애월읍 애월해안로 394,,KT,1522-0123,33.47252237,126.3504781,2019-06-30
"호텔 빠레브 주식회사",주차장,제주특별자치도,연중무휴,00:00,23:59,Y,N,,3,0,N,제주특별자치도 서귀포시 김정문화로 15,,KT,1522-0123,33.2523353,126.5066913,2019-06-30
"한류㈜",주차장,제주특별자치도,연중무휴,00:00,23:59,Y,N,,1,0,N,제주특별자치도 제주시 애월읍 하소로 769-15,,KT,1522-0123,33.4168955,126.3982975,2019-06-30
"주왕산업개발 주식회사",주차장,제주특별자치도,연중무휴,00:00,23:59,Y,N,,2,0,N,제주특별자치도 서귀포시 성산읍 한도로 269-37,,KT,1522-0123,33.46911849,126.9351432,2019-06-30
"펄리플러스 호텔",주차장,제주특별자치도,고객외 이용불가,00:00,23:59,Y,N,,2,0,N,제주특별자치도 제주시 도두봉 2길 2,,KT,1522-0123,33.50542917,126.4699672,2019-06-30
JJP골프클럽,주차장,제주특별자치도,고객외 이용불가,00:00,23:59,Y,N,,2,0,N,제주특별자치도 서귀포시 중문상로 140번길,,KT,1522-0123,33.2628002,126.4296655,2019-06-30
"강정코아루아파트 1단지",주차장,제주특별자치도,입주자외 이용불가,00:00,23:59,Y,N,,2,0,N,제주특별자치도 서귀포시 신서로 87,,KT,1522-0123,33.25977059,126.5050294,2019-06-30
"강정코아루아파트 2단지",주차장,제주특별자치도,입주자외 이용불가,00:00,23:59,Y,N,,2,0,N,제주특별자치도 서귀포시 신서로 85,,KT,1522-0123,33.25841228,126.5044618,2019-06-30
"강정코아루아파트 3단지",주차장,제주특별자치도,입주자외 이용불가,00:00,23:59,Y,N,,2,0,N,제주특별자치도 서귀포시 신서로 89,,KT,1522-0123,33.25884787,126.5051676,2019-06-30
"에스호텔 주식회사",주차장,제주특별자치도,고객외 이용불가,00:00,23:59,Y,N,,2,0,N,제주특별자치도 제주시 오일장중길 26,,KT,1522-0123,33.495435,126.4715141,2019-06-30
"나이스호텔",주차장,제주특별자치도,고객외 이용불가,00:00,23:59,Y,N,,2,0,N,제주특별자치도 제주시 논세길 96-38,,KT,1522-0123,33.48297388,126.4423707,2019-06-30
"흰수염고래리조트",주차장,제주특별자치도,고객외 이용불가,00:00,23:59,Y,N,,2,0,N,제주특별자치도 제주시 애월읍 구엄리 941,제주특별자치도 제주시 애월읍 구엄리 941,KT,1522-0123,33.4748857,126.380015581,2019-06-30
"방림원",주차장,제주특별자치도,연중무휴,00:00,23:59,Y,N,,1,0,N,제주특별자치도 제주시 한경면 용금로 864,,KT,1522-0123,33.3370712,126.2687794,2019-06-30
"해오름",주차장,제주특별자치도,연중무휴,00:00,23:59,Y,N,,2,0,N,제주특별자치도 제주시 오일장서길 21,,KT,1522-0123,33.49492052,126.4759669,2019-06-30
"㈜소프트라인 제주지점",주차장,제주특별자치도,연중무휴,00:00,23:59,Y,N,,5,0,N,제주특별자치도 서귀포시 예래해안로 15,,KT,1522-0123,33.2334783,126.370124,2019-06-30
"대진유토피아입주자대표회의",주차장,제주특별자치도,입주자외 이용불가,00:00,23:59,Y,N,,4,0,N,제주특별자치도 서귀포시 표서면 번영로 3428번길 129,,KT,1522-0123,33.3419561,126.8142057,2019-06-30
"함덕진우파크빌",주차장,제주특별자치도,입주자외 이용불가,00:00,23:59,Y,N,,1,0,N,제주특별자치도 제주시 조천읍 함덕남12길 19-6,,KT,1522-0123,33.5325518,126.6740901,2019-06-30
"함덕태영주택",주차장,제주특별자치도,입주자외 이용불가,00:00,23:59,Y,N,,2,0,N,제주특별자치도 제주시 조천읍 함덕남12길 19-3,,KT,1522-0123,33.5332549,126.6744992,2019-06-30
"한림코아루아파트입주자대표회의",주차장,제주특별자치도,입주자외 이용불가,00:00,23:59,Y,N,,2,0,N,제주특별자치도 제주시 한림읍 동명북 2길 15,,KT,1522-0123,33.4078905,126.2647663,2019-06-30
"번개과학관",주차장,제주특별자치도,연중무휴,00:00,23:59,Y,N,,2,0,N,제주특별자치도 서귀포시 토평공단로 78-27,,KT,1522-0123,33.28951947,126.5888268,2019-06-30
"아우룸숲아파트 입대위",주차장,제주특별자치도,입주자외 이용불가,00:00,23:59,Y,N,,2,0,N,제주특별자치도 서귀포시 홍중로 105,,KT,1522-0123,33.2618808,126.555731,2019-06-30
"㈜ 월드씨엔에스",주차장,제주특별자치도,연중무휴,00:00,23:59,Y,N,,2,0,N,제주특별자치도 제주시 조천읍 남조로1길 174,,KT,1522-0123,33.51682635,126.6538305,2019-06-30
"한국지엠제주바로서비스",주차장,제주특별자치도,연중무휴,00:00,23:59,Y,N,,3,0,N,제주특별자치도 제주시 구남동2길 1,,KT,1522-0123,33.4903395,126.5373298,2019-06-30
"의료법인 중앙의료재단 중앙병원",주차장,제주특별자치도,연중무휴,00:00,23:59,Y,N,,3,0,N,제주특별자치도 제주시 월랑로 91,,KT,1522-0123,33.4922645,126.4707256,2019-06-30
"오리엔탈호텔",주차장,제주특별자치도,고객외 이용불가,00:00,23:59,Y,N,,3,0,N,제주특별자치도 제주시 탑동로 47,,KT,1522-0123,33.5172617,126.5199138,2019-06-30
"서귀포강정LH아파트",주차장,제주특별자치도,연중무휴,00:00,23:59,Y,N,,2,0,N,제주특별자치도 서귀포시 대청로25번길 9,,KT,1522-0123,33.25326054,126.5022416,2019-06-30
"노형맨션아파트",주차장,제주특별자치도,입주자외 이용불가,00:00,23:59,Y,N,,1,0,N,제주특별자치도 제주시 정존3길 12,,KT,1522-0123,33.4830126,126.4734344,2019-06-30
NHF제주삼화1단지,주차장,제주특별자치도,입주자외 이용불가,00:00,23:59,Y,N,,2,0,N,제주특별자치도 제주시 화삼북로 87,,KT,1522-0123,33.51767969,126.5820588,2019-06-30
"도원자동차공업사",주차장,제주특별자치도,연중무휴,00:00,23:59,Y,N,,1,0,N,제주특별자치도 서귀포시 토평공단로139번길 11-1,,KT,1522-0123,33.2927579,126.5820307,2019-06-30
"블랙스톤리조트",주차장,제주특별자치도,고객외 이용불가,00:00,23:59,Y,N,,3,0,N,제주특별자치도 제주시 한림읍 한창로 925-122,,KT,1522-0123,33.3386593,126.3124298,2019-06-30
"엔알누리빌3차아파트 입대위",주차장,제주특별자치도,입주자외 이용불가,00:00,23:59,Y,N,,2,0,N,제주특별자치도 제주시 서회천서1길 11-1,,KT,1522-0123,33.49839557,126.604888,2019-06-30
"제주황금다래영농조합법인",주차장,제주특별자치도,고객외 이용불가,00:00,23:59,Y,N,,2,0,N,제주특별자치도 서귀포시 성산읍 남산봉로 120,,KT,1522-0123,33.37276945,126.8271707,2019-06-30
"신영영화박물관 주차장",주차장,제주특별자치도,연중무휴,00:00,23:59,N,Y,AC3상+DC차데모 +DC콤보,0,1,N,제주특별자치도 서귀포시 남원읍 남원리 2381,,제주전기자동차서비스,1670-2690,33.2743208,126.7042704,2019-06-30
"이마트신제주점",주차장(5F),제주특별자치도,"두번째금요일, 네번째토요일 휴무",10:00,23:00,N,Y,DC차데모 +DC콤보,0,16,N,제주특별자치도 제주시 노형동 919,제주특별자치도 제주시 노형동 919,에스트래픽,080-805-0010,33.4849511,126.4804897,2019-06-30
"이마트신제주점",주차장(5F),제주특별자치도,"두번째금요일, 네번째토요일 휴무",10:00,23:00,Y,N,,2,0,N,제주특별자치도 제주시 노형동 919,제주특별자치도 제주시 노형동 919(직원주차장),포스코ICT,1600-4047,33.4849511,126.4804897,2019-06-30
LG베스트샵(제주본점),주차장,제주특별자치도,고객외 이용불가,00:00,23:59,Y,N,,1,0,N,제주특별자치도 제주시 도령로 36,,포스코ICT,1600-4047,33.4877001,126.4829981,2019-06-30
"라헨느리조트",주차장,제주특별자치도,연중무휴,00:00,23:59,Y,N,,2,0,N,제주특별자치도 제주시 봉개동 237-5,제주특별자치도 제주시 봉개동 237-5,포스코ICT,1600-4047,33.453247,126.6138743,2019-06-30
LG베스트샵(제주삼도점),주차장,제주특별자치도,고객외 이용불가,00:00,23:59,Y,N,,1,0,N,제주특별자치도 제주시 서사로 29(삼도이동),,포스코ICT,1600-4047,33.5098943,126.5201544,2019-06-30
